주차장관리번호,주차장명,주차장구분,주차장유형,소재지도로명주소,소재지지번주소,주차구획수,급지구분,부제시행구분,운영요일,평일운영시작시각,평일운영종료시각,토요일운영시작시각,토요일운영종료시각,공휴일운영시작시각,공휴일운영종료시각,요금정보,주차기본시간,주차기본요금,추가단위시간,추가단위요금,1일주차권요금적용시간,1일주차권요금,월정기권요금,결제방법,특기사항,관리기관명,전화번호,위도,경도,데이터기준일자,제공기관코드,제공기관명
PAR-000001,산성동제2노상,공영,노상,대전광역시 중구 대둔산로466번길 17,대전광역시 중구 산성동 145-40,14,4,미시행,평일+토요일+공휴일,0:00,23:59,0:00,23:59,0:00,23:59,무료,0,,,,,,,,,대전광역시 중구청 교통과,042-606-6865,36.31089095,127.3893707,2022-09-16,3650000,대전광역시 중구
PAR-000002,산성동제3노상,공영,노상,대전광역시 중구 보문산로 31,대전광역시 중구 산성동 78-5,43,4,미시행,평일+토요일+공휴일,0:00,23:59,0:00,23:59,0:00,23:59,무료,0,,,,,,,,,대전광역시 중구청 교통과,042-606-6865,36.30673286,127.3848196,2022-09-16,3650000,대전광역시 중구
PAR-000003,산성동제4노상,공영,노상,대전광역시 중구 대둔산로480번길 41,대전광역시 중구 산성동 136-95,19,4,미시행,평일+토요일+공휴일,0:00,23:59,0:00,23:59,0:00,23:59,무료,0,,,,,,,,,대전광역시 중구청 교통과,042-606-6865,36.31239267,127.3911974,2022-09-16,3650000,대전광역시 중구
PAR-000004,산성동제5노상,공영,노상,대전광역시 중구 유등천동로 292번길 89-14,대전광역시 중구 산성동 36-1,84,4,미시행,평일+토요일+공휴일,0:00,23:59,0:00,23:59,0:00,23:59,무료,0,,,,,,,,,대전광역시 중구청 교통과,042-606-6865,36.30867591,127.3908175,2022-09-16,3650000,대전광역시 중구
PAR-000005,산성동제6노상,공영,노상,대전광역시 중구 산성로 32,대전광역시 중구 산성동 321,30,4,미시행,평일+토요일+공휴일,0:00,23:59,0:00,23:59,0:00,23:59,무료,0,,,,,,,,,대전광역시 중구청 교통과,042-606-6865,36.30636934,127.3923831,2022-09-16,3650000,대전광역시 중구
PAR-000006,산성동제13노상,공영,노상,대전광역시 중구 유등천동로 218,대전광역시 중구 산성동 120-15,15,4,미시행,평일+토요일+공휴일,0:00,23:59,0:00,23:59,0:00,23:59,무료,0,,,,,,,,,대전광역시 중구청 교통과,042-606-6865,36.30342557,127.3827292,2022-09-16,3650000,대전광역시 중구
PAR-000007,산성동제7노상,공영,노상,대전광역시 중구 대둔산로364번길 33-12,대전광역시 중구 산성동 275-1,32,4,미시행,평일+토요일+공휴일,0:00,23:59,0:00,23:59,0:00,23:59,무료,0,,,,,,,,,대전광역시 중구청 교통과,042-606-6865,36.30244065,127.388296,2022-09-16,3650000,대전광역시 중구
PAR-000008,산성동 제8노상,공영,노상,대전광역시 중구 문화로45번길 15-1,대전광역시 중구 산성동 147-31,36,4,미시행,평일+토요일+공휴일,0:00,23:59,0:00,23:59,0:00,23:59,무료,0,,,,,,,,,대전광역시 중구청 교통과,042-606-6865,36.31129641,127.3904698,2022-09-16,3650000,대전광역시 중구
PAR-000009,산성동 제9노상,공영,노상,대전광역시 중구 대둔산로480번길 8,대전광역시 중구 산성동 145-4,11,4,미시행,평일+토요일+공휴일,0:00,23:59,0:00,23:59,0:00,23:59,무료,0,,,,,,,,,대전광역시 중구청 교통과,042-606-6865,36.31176845,127.3893938,2022-09-16,3650000,대전광역시 중구
PAR-000010,산성동 제10노상,공영,노상,대전광역시 중구 산성로57번길 16,대전광역시 중구 산성동 64-48,6,4,미시행,평일+토요일+공휴일,0:00,23:59,0:00,23:59,0:00,23:59,무료,0,,,,,,,,,대전광역시 중구청 교통과,042-606-6865,36.30808528,127.3947383,2022-09-16,3650000,대전광역시 중구
PAR-000011,석교동제1노상,공영,노상,대전광역시 중구 신기로7번길 10,대전광역시 중구 석교동 84-15,17,4,미시행,평일+토요일+공휴일,0:00,23:59,0:00,23:59,0:00,23:59,무료,0,,,,,,,,,대전광역시 중구청 교통과,042-606-6865,36.3075822,127.4476717,2022-09-16,3650000,대전광역시 중구
PAR-000012,석교동제2노상,공영,노상,대전광역시 중구 대종로 235,대전광역시 중구 석교동 9-1,20,4,미시행,평일+토요일+공휴일,0:00,23:59,0:00,23:59,0:00,23:59,무료,0,,,,,,,,,대전광역시 중구청 교통과,042-606-6865,36.30961984,127.4413979,2022-09-16,3650000,대전광역시 중구
PAR-000013,석교동제3노상,공영,노상,대전광역시 중구 대종로 228,대전광역시 중구 석교동 12-4,46,4,미시행,평일+토요일+공휴일,0:00,23:59,0:00,23:59,0:00,23:59,무료,0,,,,,,,,,대전광역시 중구청 교통과,042-606-6865,36.30970496,127.4424094,2022-09-16,3650000,대전광역시 중구
PAR-000014,선화동제5노상,공영,노상,대전광역시 중구 중앙로 101,대전광역시 중구 선화동 287-2,19,2,미시행,평일+토요일+공휴일,0:00,23:59,0:00,23:59,0:00,23:59,무료,0,,,,,,,,,대전광역시 중구청 교통과,042-606-6865,36.32677115,127.4207316,2022-09-16,3650000,대전광역시 중구
PAR-000015,선화동제6노상,공영,노상,대전광역시 중구 대종로594번길 1,대전광역시 중구 선화동 120-5,30,2,미시행,평일+토요일+공휴일,0:00,23:59,0:00,23:59,0:00,23:59,무료,0,,,,,,,,,대전광역시 중구청 교통과,042-606-6865,36.33532208,127.4181814,2022-09-16,3650000,대전광역시 중구
PAR-000016,선화동제7노상,공영,노상,대전광역시 중구 보문로 341,대전광역시 중구 선화동 151-1,16,2,미시행,평일+토요일+공휴일,0:00,23:59,0:00,23:59,0:00,23:59,무료,0,,,,,,,,,대전광역시 중구청 교통과,042-606-6865,36.3329134,127.4188053,2022-09-16,3650000,대전광역시 중구
PAR-000017,안영동제1노상,공영,노상,대전광역시 중구 안영로 34,대전광역시 중구 안영동 650,21,4,미시행,평일+토요일+공휴일,0:00,23:59,0:00,23:59,0:00,23:59,무료,0,,,,,,,,,대전광역시 중구청 교통과,042-606-6865,36.29206098,127.3797727,2022-09-16,3650000,대전광역시 중구
PAR-000018,안영동제3노상,공영,노상,대전광역시 중구 대둔산로 184번길 17,대전광역시 중구 안영동 694,14,4,미시행,평일+토요일+공휴일,0:00,23:59,0:00,23:59,0:00,23:59,무료,0,,,,,,,,,대전광역시 중구청 교통과,042-606-6865,36.28658038,127.3795899,2022-09-16,3650000,대전광역시 중구
PAR-000019,안영동제4노상,공영,노상,대전광역시 중구 성산로 16,대전광역시 중구 안영동 650,10,4,미시행,평일+토요일+공휴일,0:00,23:59,0:00,23:59,0:00,23:59,무료,0,,,,,,,,,대전광역시 중구청 교통과,042-606-6865,36.29125932,127.379876,2022-09-16,3650000,대전광역시 중구
PAR-000020,오류동제1노상,공영,노상,대전광역시 중구 오류로 41,대전광역시 중구 오류동 116-3,17,3,미시행,평일+토요일+공휴일,0:00,23:59,0:00,23:59,0:00,23:59,무료,0,,,,,,,,,대전광역시 중구청 교통과,042-606-6865,36.32400372,127.403482,2022-09-16,3650000,대전광역시 중구
PAR-000021,문화1동제7노상,공영,노상,대전광역시 중구 과례로 82,대전광역시 중구 문화동 12-7,50,2,미시행,평일+토요일+공휴일,0:00,23:59,0:00,23:59,0:00,23:59,무료,0,,,,,,,,,대전광역시 중구청 교통과,042-606-6865,36.31446813,127.4142413,2022-09-16,3650000,대전광역시 중구
PAR-000022,문화1동제8노상,공영,노상,대전광역시 중구 과례로22번길 30,대전광역시 중구 문화동 147-4,33,2,미시행,평일+토요일+공휴일,0:00,23:59,0:00,23:59,0:00,23:59,무료,0,,,,,,,,,대전광역시 중구청 교통과,042-606-6865,36.30939039,127.4103359,2022-09-16,3650000,대전광역시 중구
PAR-000023,문화1동제9노상,공영,노상,대전광역시 중구 천근로69번길 114,대전광역시 중구 문화동 418-1,41,2,미시행,평일+토요일+공휴일,0:00,23:59,0:00,23:59,0:00,23:59,무료,0,,,,,,,,,대전광역시 중구청 교통과,042-606-6865,36.3130288,127.4056914,2022-09-16,3650000,대전광역시 중구
PAR-000024,문화1동제10노상,공영,노상,대전광역시 중구 계백로1660번길 82-3,대전광역시 중구 문화동 354-14,5,2,미시행,평일+토요일+공휴일,0:00,23:59,0:00,23:59,0:00,23:59,무료,0,,,,,,,,,대전광역시 중구청 교통과,042-606-6865,36.31625932,127.4055676,2022-09-16,3650000,대전광역시 중구
PAR-000025,문화1동제11노상,공영,노상,대전광역시 중구 계백로1658번길 79-2,대전광역시 중구 문화동 339-37,17,2,미시행,평일+토요일+공휴일,0:00,23:59,0:00,23:59,0:00,23:59,무료,0,,,,,,,,,대전광역시 중구청 교통과,042-606-6865,36.31653307,127.4043535,2022-09-16,3650000,대전광역시 중구
PAR-000026,문화1동제12노상,공영,노상,대전광역시 중구 계백로 1686번길 51,대전광역시 중구 문화동 1-48,7,2,미시행,평일+토요일+공휴일,0:00,23:59,0:00,23:59,0:00,23:59,무료,0,,,,,,,,,대전광역시 중구청 교통과,042-606-6865,36.31946021,127.407981,2022-09-16,3650000,대전광역시 중구
PAR-000027,문화2동제1노상,공영,노상,대전광역시 중구 문화로 153,대전광역시 중구 유천동 141-20,45,2,미시행,평일+토요일+공휴일,0:00,23:59,0:00,23:59,0:00,23:59,무료,0,,,,,,,,,대전광역시 중구청 교통과,042-606-6865,36.3138967,127.4022589,2022-09-16,3650000,대전광역시 중구
PAR-000028,문화2동제2노상,공영,노상,대전광역시 중구 당디로36번길 113,대전광역시 중구 문화동 671-10,15,2,미시행,평일+토요일+공휴일,0:00,23:59,0:00,23:59,0:00,23:59,무료,0,,,,,,,,,대전광역시 중구청 교통과,042-606-6865,36.3108995,127.399076,2022-09-16,3650000,대전광역시 중구
PAR-000029,문화2동제3노상,공영,노상,대전광역시 중구 문화로 170,대전광역시 중구 문화동 374-16,30,2,미시행,평일+토요일+공휴일,0:00,23:59,0:00,23:59,0:00,23:59,무료,0,,,,,,,,,대전광역시 중구청 교통과,042-606-6865,36.31407452,127.404205,2022-09-16,3650000,대전광역시 중구
PAR-000030,문화2동제4노상,공영,노상,대전광역시 중구 천근로 22,대전광역시 중구 문화동 475-1,37,2,미시행,평일+토요일+공휴일,0:00,23:59,0:00,23:59,0:00,23:59,무료,0,,,,,,,,,대전광역시 중구청 교통과,042-606-6865,36.30967208,127.4022519,2022-09-16,3650000,대전광역시 중구
PAR-000031,문화2동제5노상,공영,노상,대전광역시 중구 보문산로215번길 43,대전광역시 중구 문화동 493-1,72,2,미시행,평일+토요일+공휴일,0:00,23:59,0:00,23:59,0:00,23:59,무료,0,,,,,,,,,대전광역시 중구청 교통과,042-606-6865,36.3078604,127.4039467,2022-09-16,3650000,대전광역시 중구
PAR-000032,부사동제1노상,공영,노상,대전광역시 중구 충무로 139,대전광역시 중구 부사동 87-14,24,4,미시행,평일+토요일+공휴일,0:00,23:59,0:00,23:59,0:00,23:59,무료,0,,,,,,,,,대전광역시 중구청 교통과,042-606-6865,36.31981529,127.4317576,2022-09-16,3650000,대전광역시 중구
PAR-000033,부사동제2노상,공영,노상,대전광역시 중구 대종로 373,대전광역시 중구 부사동 209-1,41,4,미시행,평일+토요일+공휴일,0:00,23:59,0:00,23:59,0:00,23:59,무료,0,,,,,,,,,대전광역시 중구청 교통과,042-606-6865,36.317337,127.4280138,2022-09-16,3650000,대전광역시 중구
PAR-000034,부사동제3노상,공영,노상,대전광역시 중구 사득로75번길 23,대전광역시 중구 부사동 166-1,36,4,미시행,평일+토요일+공휴일,0:00,23:59,0:00,23:59,0:00,23:59,무료,0,,,,,,,,,대전광역시 중구청 교통과,042-606-6865,36.31074589,127.4370255,2022-09-16,3650000,대전광역시 중구
PAR-000035,부사동제4노상,공영,노상,대전광역시 중구 충무로92번길 48,대전광역시 중구 부사동 209-72,36,4,미시행,평일+토요일+공휴일,0:00,23:59,0:00,23:59,0:00,23:59,무료,0,,,,,,,,,대전광역시 중구청 교통과,042-606-6865,36.3156536,127.428417,2022-09-16,3650000,대전광역시 중구
PAR-000036,부사동제5노상,공영,노상,대전광역시 중구 사득로67번길 23,대전광역시 중구 부사동 364-67,10,4,미시행,평일+토요일+공휴일,0:00,23:59,0:00,23:59,0:00,23:59,무료,0,,,,,,,,,대전광역시 중구청 교통과,042-606-6865,36.31014369,127.4365663,2022-09-16,3650000,대전광역시 중구
PAR-000037,부사동제6노상,공영,노상,대전광역시 중구 보문로63번길 28,대전광역시 중구 부사동 300-8,9,4,미시행,평일+토요일+공휴일,0:00,23:59,0:00,23:59,0:00,23:59,무료,0,,,,,,,,,대전광역시 중구청 교통과,042-606-6865,36.31198026,127.4328328,2022-09-16,3650000,대전광역시 중구
PAR-000038,사정동제1노상,공영,노상,대전광역시 중구 대둔산로 350번길 6,대전광역시 중구 사정동 439-14,22,4,미시행,평일+토요일+공휴일,0:00,23:59,0:00,23:59,0:00,23:59,무료,0,,,,,,,,,대전광역시 중구청 교통과,042-606-6865,36.30011182,127.3864591,2022-09-16,3650000,대전광역시 중구
PAR-000039,사정동제2노상,공영,노상,대전광역시 중구 대둔산로 326번길 23,대전광역시 중구 사정동 431-1,9,4,미시행,평일+토요일+공휴일,0:00,23:59,0:00,23:59,0:00,23:59,무료,0,,,,,,,,,대전광역시 중구청 교통과,042-606-6865,36.29850744,127.3860409,2022-09-16,3650000,대전광역시 중구
PAR-000040,산성동제1노상,공영,노상,대전광역시 중구 당디로 45,대전광역시 중구 산성동 37-1,145,4,미시행,평일+토요일+공휴일,0:00,23:59,0:00,23:59,0:00,23:59,무료,0,,,,,,,,,대전광역시 중구청 교통과,042-606-6865,36.30853607,127.3926533,2022-09-16,3650000,대전광역시 중구
PAR-000041,금촌주차장,민영,노외,광주광역시 동구 경양로277번길 30,광주광역시 동구 계림동 284-2,16,1,미시행,평일+토요일+공휴일,0:00,23:59,0:00,23:59,0:00,23:59,유료,30,800,,,,,,,,광주광역시 동구청,062-608-2914,35.15779224,126.9200418,2022-09-22,3590000,광주광역시 동구
PAR-000042,강변아파트 뒤 노상주차장,공영,노상,강원도 평창군 평창읍 서동로 2543-6,강원도 평창군 평창읍 중리 270-9,18,1,미시행,평일+토요일+공휴일,0:00,23:59,0:00,23:59,0:00,23:59,무료,0,0,,,,,,,,강원도 평창군청,033-330-2285,37.36733667,128.4005555,2022-09-27,4280000,강원도 평창군
PAR-000043,남산로 노상주차장,공영,노상,강원도 평창군 대화면 대화중앙로 112,강원도 평창군 대화면 대화리 990-1,18,1,미시행,평일+토요일+공휴일,0:00,23:59,0:00,23:59,0:00,23:59,무료,0,0,,,,,,,,강원도 평창군청,033-330-2285,37.4989959,128.4560338,2022-09-27,4280000,강원도 평창군
PAR-000044,kt앞 노상 주차장,공영,노상,강원도 평창군 대화면 남산2길 5,강원도 평창군 대화면 대화리 1169-1,17,1,미시행,평일+토요일+공휴일,0:00,23:59,0:00,23:59,0:00,23:59,무료,0,0,,,,,,,,강원도 평창군청,033-330-2285,37.50101191,128.4556175,2022-09-27,4280000,강원도 평창군
PAR-000045,중앙로 노상주차장,공영,노상,강원도 평창군 진부면 진부중앙로 94,강원도 평창군 진부면 하진부리 90-6,187,1,미시행,평일+토요일+공휴일,0:00,23:59,0:00,23:59,0:00,23:59,무료,0,0,,,,,,,,강원도 평창군청,033-330-2285,37.6392384,128.5607073,2022-09-27,4280000,강원도 평창군
PAR-000046,금파정 옆 노상주차장,공영,노상,강원도 평창군 미탄면 미탄중앙로 54,강원도 평창군 미탄면 창리 778-12,15,1,미시행,평일+토요일+공휴일,0:00,23:59,0:00,23:59,0:00,23:59,무료,0,0,,,,,,,,강원도 평창군청,033-330-2285,37.34157736,128.4998383,2022-09-27,4280000,강원도 평창군
PAR-000047,메달플라자 주차장,공영,노상,강원도 평창군 대관령면 해당화3길 24,강원도 평창군 대관령면 횡계리 707,39,1,미시행,평일+토요일+공휴일,0:00,23:59,0:00,23:59,0:00,23:59,무료,0,0,,,,,,,,강원도 평창군청,033-330-2285,37.67215604,128.7047008,2022-09-27,4280000,강원도 평창군
PAR-000048,대관령성당앞 주차장,공영,노상,강원도 평창군 대관령면 눈마을길 47,강원도 평창군 대관령면 횡계리 339-1,6,1,미시행,평일+토요일+공휴일,0:00,23:59,0:00,23:59,0:00,23:59,무료,0,0,,,,,,,,강원도 평창군청,033-330-2285,37.67255532,128.7093483,2022-09-27,4280000,강원도 평창군
PAR-000049,천변리 주차장,공영,노외,강원도 평창군 평창읍 천변길 56,강원도 평창군 평창읍 천변리 46,230,1,미시행,평일+토요일+공휴일,0:00,23:59,0:00,23:59,0:00,23:59,무료,0,0,,,,,,,,강원도 평창군청,033-330-2285,37.3664892,128.3985184,2022-09-27,4280000,강원도 평창군
PAR-000050,우체국 뒤 주차장,공영,노외,강원도 평창군 평창읍 평창중앙로 66,강원도 평창군 평창읍 하리 428,23,1,미시행,평일+토요일+공휴일,0:00,23:59,0:00,23:59,0:00,23:59,무료,0,0,,,,,,,,강원도 평창군청,033-330-2285,37.36873227,128.3959439,2022-09-27,4280000,강원도 평창군
PAR-000051,평창 중리 주차장,공영,노외,강원도 평창군 평창읍 노성로 266,강원도 평창군 평창읍 중리 105-2,25,1,미시행,평일+토요일+공휴일,0:00,23:59,0:00,23:59,0:00,23:59,무료,0,0,,,,,,,,강원도 평창군청,033-330-2285,37.36905827,128.4045927,2022-09-27,4280000,강원도 평창군
PAR-000052,문화복지센터 주차장,공영,노외,강원도 평창군 평창중앙로 67,강원도 평창군 평창읍 하리 113-1,44,1,미시행,평일+토요일+공휴일,0:00,23:59,0:00,23:59,0:00,23:59,무료,0,0,,,,,,,,강원도 평창군청,033-330-2285,37.36876982,128.3948846,2022-09-27,4280000,강원도 평창군
PAR-000053,터미널 뒤 주차장,공영,노외,강원도 평창군 평창읍 백오1길 14,강원도 평창군 평창읍 하리 434-2,43,1,미시행,평일+토요일+공휴일,0:00,23:59,0:00,23:59,0:00,23:59,무료,0,0,,,,,,,,강원도 평창군청,033-330-2285,37.36664748,128.394201,2022-09-27,4280000,강원도 평창군
PAR-000054,군청 앞 주차장,공영,노외,강원도 평창군 평창읍 군청길 77,강원도 평창군 평창읍 하리 220-1,80,1,미시행,평일+토요일+공휴일,0:00,23:59,0:00,23:59,0:00,23:59,무료,0,0,,,,,,,,강원도 평창군청,033-330-2285,37.37127258,128.3901257,2022-09-27,4280000,강원도 평창군
PAR-000055,방범대 앞 주차장,공영,노외,강원도 평창군 평창읍 백오로 150,강원도 평창군 평창읍 중리 334-2,18,1,미시행,평일+토요일+공휴일,0:00,23:59,0:00,23:59,0:00,23:59,무료,0,0,,,,,,,,강원도 평창군청,033-330-2285,37.36797499,128.3982722,2022-09-27,4280000,강원도 평창군
PAR-000056,소방서 앞 주차장,공영,노외,강원도 평창군 노성로 145,강원도 평창군 평창읍 중리 340,9,1,미시행,평일+토요일+공휴일,0:00,23:59,0:00,23:59,0:00,23:59,무료,0,0,,,,,,,,강원도 평창군청,033-330-2285,37.3684969,128.3974965,2022-09-27,4280000,강원도 평창군
PAR-000057,평창교회 앞 주차장,공영,노외,강원도 평창군 평창읍 노산성길 56,강원도 평창군 평창읍 중리 361,13,1,미시행,평일+토요일+공휴일,0:00,23:59,0:00,23:59,0:00,23:59,무료,0,0,,,,,,,,강원도 평창군청,033-330-2285,37.36703932,128.3984729,2022-09-27,4280000,강원도 평창군
PAR-000058,노성산 주차장,공영,노외,강원도 평창군 평창읍 평창중앙로 158-8,강원도 평창군 평창읍 하리 19,50,1,미시행,평일+토요일+공휴일,0:00,23:59,0:00,23:59,0:00,23:59,무료,0,0,,,,,,,,강원도 평창군청,033-330-2285,37.3735428,128.3947329,2022-09-27,4280000,강원도 평창군
PAR-000059,청옥막국수 옆 주차장,공영,노외,강원도 평창군 평창읍 송학로 27-5,강원도 평창군 평창읍 하리 58-28,20,1,미시행,평일+토요일+공휴일,0:00,23:59,0:00,23:59,0:00,23:59,무료,0,0,,,,,,,,강원도 평창군청,033-330-2285,37.36735955,128.3923852,2022-09-27,4280000,강원도 평창군
PAR-000060,백오아파트 뒤 주차장,공영,노외,강원도 평창군 평창읍 노람들길 18,강원도 평창군 평창읍 중리-358,16,1,미시행,평일+토요일+공휴일,0:00,23:59,0:00,23:59,0:00,23:59,무료,0,0,,,,,,,,강원도 평창군청,033-330-2285,37.36806695,128.4021611,2022-09-27,4280000,강원도 평창군
PAR-000061,본전갈비 앞 주차장,공영,노외,강원도 평창군 평창읍 천변길 23,강원도 평창군 평창읍 하리 44-2,24,1,미시행,평일+토요일+공휴일,0:00,23:59,0:00,23:59,0:00,23:59,무료,0,0,,,,,,,,강원도 평창군청,033-330-2285,37.36682524,128.3965681,2022-09-27,4280000,강원도 평창군
PAR-000062,효성타운 뒤 주차장,공영,노외,강원도 평창군 평창읍 향교길 43,강원도 평창군 평창읍 하리 66-3,19,1,미시행,평일+토요일+공휴일,0:00,23:59,0:00,23:59,0:00,23:59,무료,0,0,,,,,,,,강원도 평창군청,033-330-2285,37.36720204,128.3912693,2022-09-27,4280000,강원도 평창군
PAR-000063,대산아파트옆(11공영),공영,노외,강원도 태백시 풀미당골길 35,강원도 태백시 황지동 24,49,기타,미시행,평일,0:00,23:59,0:00,0:00,0:00,0:00,유료,30,500,10,200,5000,10000,75000,현금,경차+국가유공자+장애인 차량 59퍼센트 할인,강원도 태백시청,033-550-2105,37.17117887,128.9949238,2022-09-28,4220000,강원도 태백시
PAR-000064,중앙로 노외(12공영),공영,노외,강원도 태백시 황지로 139-11,강원도 태백시 황지동 45-46,35,기타,미시행,평일,0:00,23:59,0:00,0:00,0:00,0:00,유료,30,500,10,200,5000,10000,75000,현금,경차+국가유공자+장애인 차량 60퍼센트 할인,강원도 태백시청,033-550-2106,37.17134009,128.991602,2022-09-28,4220000,강원도 태백시
PAR-000065,황지연못 뒤(13공영),공영,노상,강원도 태백시 황지연못길 15,강원도 태백시 황지동 25-90,16,기타,미시행,평일,0:00,23:59,0:00,0:00,0:00,0:00,유료,30,500,10,200,5000,10000,75000,현금,경차+국가유공자+장애인 차량 61퍼센트 할인,강원도 태백시청,033-550-2107,37.17302557,128.9903229,2022-09-28,4220000,강원도 태백시
PAR-000066,대사동제2노상,공영,노상,대전광역시 중구 보문로125번길 13,대전광역시 중구 대사동 172,12,4,미시행,평일+토요일+공휴일,0:00,23:59,0:00,23:59,0:00,23:59,무료,0,,,,,,,,,대전광역시 중구청 교통과,042-606-6865,36.31384778,127.4273945,2022-09-16,3650000,대전광역시 중구
PAR-000067,대사동제1노상,공영,노상,대전광역시 중구 계룡로929번길 40,대전광역시 중구 대사동 248-219,25,4,미시행,평일+토요일+공휴일,0:00,23:59,0:00,23:59,0:00,23:59,무료,0,,,,,,,,,대전광역시 중구청 교통과,042-606-6865,36.3203416,127.4174708,2022-09-16,3650000,대전광역시 중구
PAR-000068,대사동제3노상,공영,노상,대전광역시 중구 보문로 146,대전광역시 중구 대사동 95-16,14,4,미시행,평일+토요일+공휴일,0:00,23:59,0:00,23:59,0:00,23:59,무료,0,,,,,,,,,대전광역시 중구청 교통과,042-606-6865,36.31672534,127.4268123,2022-09-16,3650000,대전광역시 중구
PAR-000069,대사동제4노상,공영,노상,대전광역시 중구 보문로 162번길 40,대전광역시 중구 대사동 77-70,33,4,미시행,평일+토요일+공휴일,0:00,23:59,0:00,23:59,0:00,23:59,무료,0,,,,,,,,,대전광역시 중구청 교통과,042-606-6865,36.31840289,127.4277929,2022-09-16,3650000,대전광역시 중구
PAR-000070,대흥동제4노상,공영,노상,대전광역시 중구 중앙로 112,대전광역시 중구 대흥동 496-1,22,2,미시행,평일+토요일+공휴일,0:00,23:59,0:00,23:59,0:00,23:59,무료,0,,,,,,,,,대전광역시 중구청 교통과,042-606-6865,36.32670915,127.422546,2022-09-16,3650000,대전광역시 중구
PAR-000071,대흥동제5노상,공영,노상,대전광역시 중구 보문로230번길 21,대전광역시 중구 대흥동 452-96,19,2,미시행,평일+토요일+공휴일,0:00,23:59,0:00,23:59,0:00,23:59,무료,0,,,,,,,,,대전광역시 중구청 교통과,042-606-6865,36.32364497,127.4239688,2022-09-16,3650000,대전광역시 중구
PAR-000072,대흥동제9노상,공영,노상,대전광역시 중구 대흥로 178,대전광역시 중구 대흥동 104-5,4,2,미시행,평일+토요일+공휴일,0:00,23:59,0:00,23:59,0:00,23:59,무료,0,,,,,,,,,대전광역시 중구청 교통과,042-606-6865,36.32515636,127.4316426,2022-09-16,3650000,대전광역시 중구
PAR-000073,대흥동제10노상,공영,노상,대전광역시 중구 중앙로 100,대전광역시 중구 대흥동 499-1,20,4,미시행,평일+토요일+공휴일,0:00,23:59,0:00,23:59,0:00,23:59,무료,0,,,,,,,,,대전광역시 중구청 교통과,042-606-6865,36.32557502,127.4212953,2022-09-16,3650000,대전광역시 중구
PAR-000074,문창동제1노상,공영,노상,대전광역시 중구 대종로334번길 12,대전광역시 중구 부사동 126-2,14,3,미시행,평일+토요일+공휴일,0:00,23:59,0:00,23:59,0:00,23:59,무료,0,,,,,,,,,대전광역시 중구청 교통과,042-606-6865,36.31559562,127.4344674,2022-09-16,3650000,대전광역시 중구
PAR-000075,문창동제2노상,공영,노상,대전광역시 중구 대종로386번길 71,대전광역시 중구 문창동 53-33,20,3,미시행,평일+토요일+공휴일,0:00,23:59,0:00,23:59,0:00,23:59,무료,0,,,,,,,,,대전광역시 중구청 교통과,042-606-6865,36.32156075,127.4341062,2022-09-16,3650000,대전광역시 중구
PAR-000076,문창동제3노상,공영,노상,대전광역시 중구 대전천서로 269,대전광역시 중구 문창동 367-29,230,3,미시행,평일+토요일+공휴일,0:00,23:59,0:00,23:59,0:00,23:59,무료,0,,,,,,,,,대전광역시 중구청 교통과,042-606-6865,36.31482503,127.4387359,2022-09-16,3650000,대전광역시 중구
PAR-000077,문창동제4노상,공영,노상,대전광역시 중구 문창로 30,대전광역시 중구 문창동 107-11,22,3,미시행,평일+토요일+공휴일,0:00,23:59,0:00,23:59,0:00,23:59,무료,0,,,,,,,,,대전광역시 중구청 교통과,042-606-6865,36.31674597,127.4354095,2022-09-16,3650000,대전광역시 중구
PAR-000078,문창동제5노상,공영,노상,대전광역시 중구 보문로 30번길 7,대전광역시 중구 문창동 361-2,24,3,미시행,평일+토요일+공휴일,0:00,23:59,0:00,23:59,0:00,23:59,무료,0,,,,,,,,,대전광역시 중구청 교통과,042-606-6865,36.31444362,127.4373166,2022-09-16,3650000,대전광역시 중구
PAR-000079,문창동제6노상,공영,노상,대전광역시 중구 대종로296번길 40,대전광역시 중구 문창동 381-1,46,3,미시행,평일+토요일+공휴일,0:00,23:59,0:00,23:59,0:00,23:59,무료,0,,,,,,,,,대전광역시 중구청 교통과,042-606-6865,36.31353717,127.4377474,2022-09-16,3650000,대전광역시 중구
PAR-000080,문창동제7노상,공영,노상,대전광역시 중구 대종로334번길 40,대전광역시 중구 문창동 123-23,30,3,미시행,평일+토요일+공휴일,0:00,23:59,0:00,23:59,0:00,23:59,무료,0,,,,,,,,,대전광역시 중구청 교통과,042-606-6865,36.31618537,127.435948,2022-09-16,3650000,대전광역시 중구
PAR-000081,문창동제8노상,공영,노상,대전광역시 중구 보문로20번길 38,대전광역시 중구 문창동 116-15,8,3,미시행,평일+토요일+공휴일,0:00,23:59,0:00,23:59,0:00,23:59,무료,0,,,,,,,,,대전광역시 중구청 교통과,042-606-6865,36.31620835,127.437921,2022-09-16,3650000,대전광역시 중구
PAR-000082,문화1동제5노상,공영,노상,대전광역시 중구 과례로67번길 24,대전광역시 중구 문화동 263-9,12,2,미시행,평일+토요일+공휴일,0:00,23:59,0:00,23:59,0:00,23:59,무료,0,,,,,,,,,대전광역시 중구청 교통과,042-606-6865,36.31402901,127.4116531,2022-09-16,3650000,대전광역시 중구
PAR-000083,청솔아파트옆,공영,노상,강원도 태백시 해지개길 26,강원도 태백시 황지동 665-1,20,기타,미시행,평일,0:00,23:59,0:00,0:00,0:00,0:00,무료,0,0,,,,,,,,강원도 태백시청,033-550-2105,37.16124507,128.9833791,2022-09-28,4220000,강원도 태백시
PAR-000084,황지고둥학교옆,공영,노상,강원도 태백시 해지개길 24,강원도 태백시 황지동 665-1,17,기타,미시행,평일,0:00,23:59,0:00,0:00,0:00,0:00,무료,0,0,,,,,,,,강원도 태백시청,033-550-2105,37.16111252,128.9837359,2022-09-28,4220000,강원도 태백시
PAR-000085,황지중앙초등학교옆,공영,노상,강원도 태백시 장수길 18,강원도 태백시 황지동 274-508,8,기타,미시행,평일,0:00,23:59,0:00,0:00,0:00,0:00,무료,0,0,,,,,,,,강원도 태백시청,033-550-2105,37.17914351,128.9850259,2022-09-28,4220000,강원도 태백시
PAR-000086,장성석공마트옆,공영,노외,강원도 태백시 석공길 24,강원도 태백시 장성동 147-1,11,기타,미시행,평일,0:00,23:59,0:00,0:00,0:00,0:00,무료,0,0,,,,,,,,강원도 태백시청,033-550-2105,37.10342569,129.0076444,2022-09-28,4220000,강원도 태백시
PAR-000087,2주공아파트옆,공영,노상,강원도 태백시 황지로 19,강원도 태백시 황지동 90-7,7,기타,미시행,평일,0:00,23:59,0:00,0:00,0:00,0:00,무료,0,0,,,,,,,,강원도 태백시청,033-550-2105,37.16068735,128.9901189,2022-09-28,4220000,강원도 태백시
PAR-000088,화전동 마을회관,공영,노외,강원도 태백시 외솔배기길 100,강원도 태백시 화전동 11-22,28,기타,미시행,평일,0:00,23:59,0:00,0:00,0:00,0:00,무료,0,0,,,,,,,,강원도 태백시청,033-550-2105,37.17934921,128.9769662,2022-09-28,4220000,강원도 태백시
PAR-000089,장성농공단지옆,공영,노외,강원도 태백시 계산8길 37,강원도 태백시 장성동 240-12,10,기타,미시행,평일,0:00,23:59,0:00,0:00,0:00,0:00,무료,0,0,,,,,,,,강원도 태백시청,033-550-2105,37.10741685,128.998827,2022-09-28,4220000,강원도 태백시
PAR-000090,삼성화재후면,공영,노상,강원도 태백시 문화로북길 8,강원도 태백시 황지동 59-46,46,기타,미시행,평일,0:00,23:59,0:00,0:00,0:00,0:00,무료,0,0,,,,,,,,강원도 태백시청,033-550-2105,37.16712283,128.9914104,2022-09-28,4220000,강원도 태백시
PAR-000091,상장동(구)골든세차장,공영,노외,강원도 태백시 상장로 33,강원도 태백시 황지동 114-34,24,기타,미시행,평일,0:00,23:59,0:00,0:00,0:00,0:00,무료,0,0,,,,,,,,강원도 태백시청,033-550-2105,37.14936651,128.9903229,2022-09-28,4220000,강원도 태백시
PAR-000092,황지자유시장(제2주차장),공영,노외,강원도 태백시 새시장1길 40,강원도 태백시 황지동 38-280,40,기타,미시행,평일,0:00,23:59,0:00,0:00,0:00,0:00,유료,30,500,10,200,5000,10000,75000,현금,경차+국가유공자+장애인 차량 50퍼센트 할인,강원도 태백시 황지자유시장조합,033-552-2634,37.17443924,128.9923502,2022-09-28,4220000,강원도 태백시
PAR-000093,"태백역, 황연동사무소(1공영)",공영,노외,강원도 태백시 황연길 29,강원도 태백시 황지동 274-681,28,기타,미시행,평일,0:00,23:59,0:00,0:00,0:00,0:00,유료,30,500,10,200,5000,10000,75000,현금,경차+국가유공자+장애인 차량 51퍼센트 할인,강원도 태백시청,033-550-2105,37.1778968,128.9880201,2022-09-28,4220000,강원도 태백시
PAR-000094,국민은행옆(2공영),공영,노외,강원도 태백시 먹거리길 71,강원도 태백시 황지동 253-148,38,기타,미시행,평일,0:00,23:59,0:00,0:00,0:00,0:00,유료,30,500,10,200,5000,10000,75000,현금,경차+국가유공자+장애인 차량 52퍼센트 할인,강원도 태백시청,033-550-2105,37.1751845,128.9885423,2022-09-28,4220000,강원도 태백시
PAR-000095,산칠록목욕탕옆(3공영),공영,노상,강원도 태백시 연지로 28,강원도 태백시 황지동 8-2,50,기타,미시행,평일,0:00,23:59,0:00,0:00,0:00,0:00,유료,30,500,10,200,5000,10000,75000,현금,경차+국가유공자+장애인 차량 53퍼센트 할인,강원도 태백시청,033-550-2105,37.17586199,128.9902313,2022-09-28,4220000,강원도 태백시
PAR-000096,보건소앞우회도로(4공영),공영,노상,강원도 태백시 태백로 922,강원도 태백시 황지동 38-383,44,기타,미시행,평일,0:00,23:59,0:00,0:00,0:00,0:00,유료,30,500,10,200,5000,10000,75000,현금,경차+국가유공자+장애인 차량 54퍼센트 할인,강원도 태백시청,033-550-2105,37.17498458,128.9927881,2022-09-28,4220000,강원도 태백시
PAR-000097,LA갈비옆,공영,노상,강원도 태백시 황지로 247-1,강원도 태백시 황지동 273-9,19,기타,미시행,평일,0:00,23:59,0:00,0:00,0:00,0:00,무료,0,0,,,,,,,,강원도 태백시청,033-550-2105,37.17827968,128.9846843,2022-09-28,4220000,강원도 태백시
PAR-000098,중앙로(5공영),공영,노상,강원도 태백시 번영로 349,강원도 태백시 황지동 42-14,34,기타,미시행,평일,0:00,23:59,0:00,0:00,0:00,0:00,유료,30,500,10,200,5000,10000,75000,현금,경차+국가유공자+장애인 차량 55퍼센트 할인,강원도 태백시청,033-550-2105,37.1719572,128.9914473,2022-09-28,4220000,강원도 태백시
PAR-000099,한마음신협앞(6공영),공영,노상,강원도 태백시 번영로 362,강원도 태백시 황지동 29-7,26,기타,미시행,평일,0:00,23:59,0:00,0:00,0:00,0:00,유료,30,500,10,200,5000,10000,75000,현금,경차+국가유공자+장애인 차량 56퍼센트 할인,강원도 태백시청,033-550-2105,37.1714144,128.9927815,2022-09-28,4220000,강원도 태백시
PAR-000100,한마음산부인과앞(7공영),공영,노외,강원도 태백시 서황지로 4,강원도 태백시 황지동 25-150,18,기타,미시행,평일,0:00,23:59,0:00,0:00,0:00,0:00,유료,30,500,10,200,5000,10000,75000,현금,경차+국가유공자+장애인 차량 57퍼센트 할인,강원도 태백시청,033-550-2105,37.17200869,128.9901312,2022-09-28,4220000,강원도 태백시
PAR-000101,1주공앞(8공영),공영,노외,강원도 태백시 서황지로 4,강원도 태백시 황지동 25-150,42,기타,미시행,평일,0:00,23:59,0:00,0:00,0:00,0:00,유료,30,500,10,200,5000,10000,75000,현금,경차+국가유공자+장애인 차량 58퍼센트 할인,강원도 태백시청,033-550-2105,37.17200869,128.9901312,2022-09-28,4220000,강원도 태백시
PAR-000102,고려의원옆(9공영),공영,노외,강원도 태백시 황지로 90,강원도 태백시 황지동 62-3,35,기타,미시행,평일,0:00,23:59,0:00,0:00,0:00,0:00,유료,30,500,10,200,5000,10000,75000,현금,경차+국가유공자+장애인 차량 59퍼센트 할인,강원도 태백시청,033-550-2105,37.16674399,128.9921716,2022-09-28,4220000,강원도 태백시
PAR-000103,자유시장앞(10공영),공영,노상,강원도 태백시 태백로 954,강원도 태백시 황지동 33-86,18,기타,미시행,평일,0:00,23:59,0:00,0:00,0:00,0:00,무료,0,0,,,,,,,,강원도 태백시청,033-550-2105,37.17234977,128.9937688,2022-09-28,4220000,강원도 태백시
PAR-000104,철암보건지소옆,공영,노외,강원도 태백시 철암길 2,강원도 태백시 철암동 349-18,74,기타,미시행,평일,0:00,23:59,0:00,0:00,0:00,0:00,무료,0,0,,,,,,,,강원도 태백시청,033-550-2105,37.11728633,129.0397963,2022-09-28,4220000,강원도 태백시
PAR-000105,철암 삼방교위,공영,노외,강원도 태백시 삼방길 10,강원도 태백시 철암동 351-7,19,기타,미시행,평일,0:00,23:59,0:00,0:00,0:00,0:00,무료,0,0,,,,,,,,강원도 태백시청,033-550-2105,37.11629505,129.0384673,2022-09-28,4220000,강원도 태백시
PAR-000106,철암 후미끼리,공영,노외,강원도 태백시 마산등길 32,강원도 태백시 철암동 331-3,10,기타,미시행,평일,0:00,23:59,0:00,0:00,0:00,0:00,무료,0,0,,,,,,,,강원도 태백시청,033-550-2105,37.11727155,129.0460318,2022-09-28,4220000,강원도 태백시
PAR-000107,통리 의용소방대앞,공영,노상,강원도 태백시 통리길 13,강원도 태백시 통동 346-104,121,기타,미시행,평일,0:00,23:59,0:00,0:00,0:00,0:00,무료,0,0,,,,,,,,강원도 태백시청,033-550-2105,37.16883825,129.0370166,2022-09-28,4220000,강원도 태백시
PAR-000108,통리초등학교옆,공영,노상,강원도 태백시 통골길 13,강원도 태백시 통동 70-3,32,기타,미시행,평일,0:00,23:59,0:00,0:00,0:00,0:00,무료,0,0,,,,,,,,강원도 태백시청,033-550-2105,37.16713707,129.0350302,2022-09-28,4220000,강원도 태백시
PAR-000109,통리초등학교옆,공영,노상,강원도 태백시 통골길 13,강원도 태백시 통동 70-3,32,기타,미시행,평일,0:00,23:59,0:00,0:00,0:00,0:00,무료,0,0,,,,,,,,강원도 태백시청,033-550-2105,37.16713707,129.0350302,2022-09-28,4220000,강원도 태백시
PAR-000110,태백역옆,공영,노외,강원도 태백시 서황지로 79,강원도 태백시 황지동 257,46,기타,미시행,평일,0:00,23:59,0:00,0:00,0:00,0:00,무료,0,0,,,,,,,,강원도 태백시청,033-550-2105,37.17634042,128.9833806,2022-09-28,4220000,강원도 태백시
PAR-000111,3주공옆,공영,노상,강원도 태백시 고원로 279,강원도 태백시 황지동 674,28,기타,미시행,평일,0:00,23:59,0:00,0:00,0:00,0:00,무료,0,0,,,,,,,,강원도 태백시청,033-550-2105,37.17547577,128.9815262,2022-09-28,4220000,강원도 태백시
PAR-000112,절골안길,공영,노외,강원도 태백시 절골2길 28,강원도 태백시 황지동 362-47,55,기타,미시행,평일,0:00,23:59,0:00,0:00,0:00,0:00,무료,0,0,,,,,,,,강원도 태백시청,033-550-2105,37.17638519,128.9791853,2022-09-28,4220000,강원도 태백시
PAR-000113,절골 서울설비옆,공영,노외,강원도 태백시 고원로 305-5,강원도 태백시 황지동 353-23,44,기타,미시행,평일,0:00,23:59,0:00,0:00,0:00,0:00,무료,0,0,,,,,,,,강원도 태백시청,033-550-2105,37.1773358,128.9793649,2022-09-28,4220000,강원도 태백시
PAR-000114,중앙공업사옆,공영,노상,강원도 태백시 문화로2길 6,강원도 태백시 황지동 74-123,12,기타,미시행,평일,0:00,23:59,0:00,0:00,0:00,0:00,무료,0,0,,,,,,,,강원도 태백시청,033-550-2105,37.16656549,128.9927465,2022-09-28,4220000,강원도 태백시
PAR-000115,부일갈비옆,공영,노상,강원도 태백시 문화로3길 91,강원도 태백시 황지동 71-94,20,기타,미시행,평일,0:00,23:59,0:00,0:00,0:00,0:00,무료,0,0,,,,,,,,강원도 태백시청,033-550-2105,37.17052461,128.9934965,2022-09-28,4220000,강원도 태백시
PAR-000116,대현목욕탕옆,공영,노상,강원도 태백시 황지남3길 5,강원도 태백시 황지동 70-9,11,기타,미시행,평일,0:00,23:59,0:00,0:00,0:00,0:00,무료,0,0,,,,,,,,강원도 태백시청,033-550-2105,37.17043962,128.9927383,2022-09-28,4220000,강원도 태백시
PAR-000117,황지체육사옆,공영,노상,강원도 태백시 시장남1길 17,강원도 태백시 황지동 33-67,5,기타,미시행,평일,0:00,23:59,0:00,0:00,0:00,0:00,무료,0,0,,,,,,,,강원도 태백시청,033-550-2105,37.17231342,128.9931021,2022-09-28,4220000,강원도 태백시
PAR-000118,황연동주민센터위,공영,노상,강원도 태백시 황연길 19,강원도 태백시 황지동 274-498,16,기타,미시행,평일,0:00,23:59,0:00,0:00,0:00,0:00,무료,0,0,,,,,,,,강원도 태백시청,033-550-2105,37.17755719,128.9876581,2022-09-28,4220000,강원도 태백시
PAR-000119,성지사우나옆,공영,노상,강원도 태백시 금계길 28,강원도 태백시 황지동 368-254,16,기타,미시행,평일,0:00,23:59,0:00,0:00,0:00,0:00,무료,0,0,,,,,,,,강원도 태백시청,033-550-2105,37.17813611,128.9824282,2022-09-28,4220000,강원도 태백시
PAR-000120,삼성프라자옆,공영,노상,강원도 태백시 태백로 992,강원도 태백시 황지동 73-15,18,기타,미시행,평일,0:00,23:59,0:00,0:00,0:00,0:00,무료,0,0,,,,,,,,강원도 태백시청,033-550-2105,37.16905188,128.9941075,2022-09-28,4220000,강원도 태백시
PAR-000121,조화사옆,공영,노상,강원도 태백시 상장3길 3,강원도 태백시 황지동 108-35,14,기타,미시행,평일,0:00,23:59,0:00,0:00,0:00,0:00,무료,0,0,,,,,,,,강원도 태백시청,033-550-2105,37.15408119,128.9899506,2022-09-28,4220000,강원도 태백시
PAR-000122,황연동주민센터옆,공영,노상,강원도 태백시 황연3길 13,강원도 태백시 황지동 274-653,32,기타,미시행,평일,0:00,23:59,0:00,0:00,0:00,0:00,무료,0,0,,,,,,,,강원도 태백시청,033-550-2105,37.17810843,128.9875151,2022-09-28,4220000,강원도 태백시
PAR-000123,태백시외버스터미널옆,공영,노상,강원도 태백시 금계길 9-7,강원도 태백시 황지동 368-132,10,기타,미시행,평일,0:00,23:59,0:00,0:00,0:00,0:00,무료,0,0,,,,,,,,강원도 태백시청,033-550-2105,37.17705864,128.9843263,2022-09-28,4220000,강원도 태백시
PAR-000124,범패사 입구,공영,노외,강원도 태백시 풀미당골길 1-4,강원도 태백시 황지동 23-6,20,기타,미시행,평일,0:00,23:59,0:00,0:00,0:00,0:00,무료,0,0,,,,,,,,강원도 태백시청,033-550-2105,37.17395014,128.9945769,2022-09-28,4220000,강원도 태백시
PAR-000125,태광주유소앞,공영,노상,강원도 태백시 태백로 892,강원도 태백시 황지동 8-71,22,기타,미시행,평일,0:00,23:59,0:00,0:00,0:00,0:00,무료,0,0,,,,,,,,강원도 태백시청,033-550-2105,37.17722583,128.9904699,2022-09-28,4220000,강원도 태백시
PAR-000126,황지연지지구,공영,노외,강원도 태백시 태백로 915,강원도 태백시 황지동 20-37,47,기타,미시행,평일,0:00,23:59,0:00,0:00,0:00,0:00,무료,0,0,,,,,,,,강원도 태백시청,033-550-2105,37.17582449,128.9933884,2022-09-28,4220000,강원도 태백시
PAR-000127,2주공후문,공영,노상,강원도 태백시 황지로 13-1,강원도 태백시 황지동 87-36,13,기타,미시행,평일,0:00,23:59,0:00,0:00,0:00,0:00,무료,0,0,,,,,,,,강원도 태백시청,033-550-2105,37.1601932,128.9900224,2022-09-28,4220000,강원도 태백시
PAR-000128,현대아파트옆,공영,노외,강원도 태백시 해지개길 26,강원도 태백시 황지동 665-1,26,기타,미시행,평일,0:00,23:59,0:00,0:00,0:00,0:00,무료,0,0,,,,,,,,강원도 태백시청,033-550-2105,37.16124507,128.9833791,2022-09-28,4220000,강원도 태백시
PAR-000129,너와집옆,공영,노외,강원도 태백시 고원로 35,강원도 태백시 황지동 208-9,12,기타,미시행,평일,0:00,23:59,0:00,0:00,0:00,0:00,무료,0,0,,,,,,,,강원도 태백시청,033-550-2105,37.15854059,128.9879394,2022-09-28,4220000,강원도 태백시
PAR-000130,고원예식장앞,공영,노외,강원도 태백시 짐대배기2길 12,강원도 태백시 황지동 194-60,7,기타,미시행,평일,0:00,23:59,0:00,0:00,0:00,0:00,무료,0,0,,,,,,,,강원도 태백시청,033-550-2105,37.15594774,128.9885693,2022-09-28,4220000,강원도 태백시
PAR-000131,SK부자주유소옆,공영,노외,강원도 태백시 상장로 86,강원도 태백시 황지동 108-33,31,기타,미시행,평일,0:00,23:59,0:00,0:00,0:00,0:00,무료,0,0,,,,,,,,강원도 태백시청,033-550-2105,37.1541607,128.9899637,2022-09-28,4220000,강원도 태백시
PAR-000132,문곡역옆(상장),공영,노상,강원도 태백시 상장로 61,강원도 태백시 황지동 180,17,기타,미시행,평일,0:00,23:59,0:00,0:00,0:00,0:00,무료,0,0,,,,,,,,강원도 태백시청,033-550-2105,37.1520758,128.9897877,2022-09-28,4220000,강원도 태백시
PAR-000133,함태중학교앞,공영,노상,강원도 태백시 번영로 11,강원도 태백시 황지동 166-2,34,기타,미시행,평일,0:00,23:59,0:00,0:00,0:00,0:00,무료,0,0,,,,,,,,강원도 태백시청,033-550-2105,37.14594878,128.9865614,2022-09-28,4220000,강원도 태백시
PAR-000134,문곡소도동주민센터옆,공영,노외,강원도 태백시 용담1길 9-4,강원도 태백시 소도동 78,18,기타,미시행,평일,0:00,23:59,0:00,0:00,0:00,0:00,무료,0,0,,,,,,,,강원도 태백시청,033-550-2105,37.13151797,128.9593539,2022-09-28,4220000,강원도 태백시
PAR-000135,소도다목적광장,공영,노외,강원도 태백시 태백산로 4725,강원도 태백시 소도동 316-48,139,기타,미시행,평일,0:00,23:59,0:00,0:00,0:00,0:00,무료,0,0,,,,,,,,강원도 태백시청,033-550-2105,37.1310592,128.9564218,2022-09-28,4220000,강원도 태백시
PAR-000136,장성어린이집옆,공영,노외,강원도 태백시 장성1길 66,강원도 태백시 장성동 150-54,37,기타,미시행,평일,0:00,23:59,0:00,0:00,0:00,0:00,무료,0,0,,,,,,,,강원도 태백시청,033-550-2105,37.10097439,129.0059579,2022-09-28,4220000,강원도 태백시
PAR-000137,장성중앙시장옆,공영,노외,강원도 태백시 장성로 44,강원도 태백시 장성동 159-8,23,기타,미시행,평일,0:00,23:59,0:00,0:00,0:00,0:00,무료,0,0,,,,,,,,강원도 태백시청,033-550-2105,37.10114312,129.0100055,2022-09-28,4220000,강원도 태백시
PAR-000138,장성동 삼미원옆,공영,노상,강원도 태백시 장성로 47-1,강원도 태백시 장성동 222-34,27,기타,미시행,평일,0:00,23:59,0:00,0:00,0:00,0:00,무료,0,0,,,,,,,,강원도 태백시청,033-550-2105,37.10124695,129.0105764,2022-09-28,4220000,강원도 태백시
PAR-000139,장성 호암동,공영,노외,강원도 태백시 장성로 91,강원도 태백시 장성동 54-151,22,기타,미시행,평일,0:00,23:59,0:00,0:00,0:00,0:00,무료,0,0,,,,,,,,강원도 태백시청,033-550-2105,37.10470484,129.0127212,2022-09-28,4220000,강원도 태백시
PAR-000140,태백교육지원청옆,공영,노상,강원도 태백시 장성로 191,강원도 태백시 장성동 55-3,65,기타,미시행,평일,0:00,23:59,0:00,0:00,0:00,0:00,무료,0,0,,,,,,,,강원도 태백시청,033-550-2105,37.10367378,129.0227743,2022-09-28,4220000,강원도 태백시
PAR-000141,수재민사택,공영,노외,강원도 태백시 비와야폭포길 7-1,강원도 태백시 장성동 44-10,17,기타,미시행,평일,0:00,23:59,0:00,0:00,0:00,0:00,무료,0,0,,,,,,,,강원도 태백시청,033-550-2105,37.10346195,129.0236624,2022-09-28,4220000,강원도 태백시
PAR-000142,자연사박물관앞,공영,노상,강원도 태백시 태백로 2249,강원도 태백시 동점동 295,5,기타,미시행,평일,0:00,23:59,0:00,0:00,0:00,0:00,무료,0,0,,,,,,,,강원도 태백시청,033-550-2105,37.0948994,129.0396319,2022-09-28,4220000,강원도 태백시
PAR-000143,동점초등학교옆,공영,노외,강원도 태백시 방터골길 27,강원도 태백시 동점동 498-101,47,기타,미시행,평일,0:00,23:59,0:00,0:00,0:00,0:00,무료,0,0,,,,,,,,강원도 태백시청,033-550-2105,37.09917855,129.0492946,2022-09-28,4220000,강원도 태백시
PAR-000144,구문소옆,공영,노외,강원도 태백시 동태백로 11,강원도 태백시 동점동 산 6-3,10,기타,미시행,평일,0:00,23:59,0:00,0:00,0:00,0:00,무료,0,0,,,,,,,,강원도 태백시청,033-550-2105,37.09296812,129.0422636,2022-09-28,4220000,강원도 태백시
PAR-000145,철암남동교,공영,노외,강원도 태백시 샛들3길 3-10,강원도 태백시 철암동 378-42,23,기타,미시행,평일,0:00,23:59,0:00,0:00,0:00,0:00,무료,0,0,,,,,,,,강원도 태백시청,033-550-2105,37.11120323,129.0358604,2022-09-28,4220000,강원도 태백시
PAR-000146,철암역옆,공영,노상,강원도 태백시 동태백로 389,강원도 태백시 철암동 370-1,15,기타,미시행,평일,0:00,23:59,0:00,0:00,0:00,0:00,무료,0,0,,,,,,,,강원도 태백시청,033-550-2105,37.11483357,129.0369596,2022-09-28,4220000,강원도 태백시
PAR-000147,송정택지 4주차장,공영,노외,강원도 평창군 진부면 송정택지1길 52-9,강원도 평창군 진부면 송정리 2516-1,9,1,미시행,평일+토요일+공휴일,0:00,23:59,0:00,23:59,0:00,23:59,무료,0,0,,,,,,,,강원도 평창군청,033-330-2285,37.63513127,128.5619814,2022-09-27,4280000,강원도 평창군
PAR-000148,진부방앗간 앞 주차장,공영,노외,강원도 평창군 진부면 진부시장뒷길 15,강원도 평창군 진부면 하진부리 145-14,19,1,미시행,평일+토요일+공휴일,0:00,23:59,0:00,23:59,0:00,23:59,무료,0,0,,,,,,,,강원도 평창군청,033-330-2285,37.63727999,128.5568236,2022-09-27,4280000,강원도 평창군
PAR-000149,송정택지 5주차장,공영,노외,강원도 평창군 진부면 송정택지2길 31-9,강원도 평창군 진부면 송정리 2540,25,1,미시행,평일+토요일+공휴일,0:00,23:59,0:00,23:59,0:00,23:59,무료,0,0,,,,,,,,강원도 평창군청,033-330-2285,37.63407146,128.5608423,2022-09-27,4280000,강원도 평창군
PAR-000150,진부주공아파트 앞 주차장,공영,노외,강원도 평창군 진부면 경강로 3587,강원도 평창군 진부면 하진부리 123-1,166,1,미시행,평일+토요일+공휴일,0:00,23:59,0:00,23:59,0:00,23:59,무료,0,0,,,,,,,,강원도 평창군청,033-330-2285,37.63533428,128.5578984,2022-09-27,4280000,강원도 평창군
PAR-000151,대관령파출소 뒤 주차장,공영,노외,강원도 평창군 대관령면 대관령로 91-8,강원도 평창군 대관령면 횡계리 665,25,1,미시행,평일+토요일+공휴일,0:00,23:59,0:00,23:59,0:00,23:59,무료,0,0,,,,,,,,강원도 평창군청,033-330-2285,37.67305341,128.7068799,2022-09-27,4280000,강원도 평창군
PAR-000152,횡계의원 뒤 1주차장,공영,노외,강원도 평창군 대관령면 축제길 40,강원도 평창군 대관령면 횡계리 321-10,28,1,미시행,평일+토요일+공휴일,0:00,23:59,0:00,23:59,0:00,23:59,무료,0,0,,,,,,,,강원도 평창군청,033-330-2285,37.67170099,128.7079653,2022-09-27,4280000,강원도 평창군
PAR-000153,횡계의원 뒤 2주차장,공영,노외,강원도 평창군 대관령면 축제길 36,강원도 평창군 대관령면 횡계리 337-8,32,1,미시행,평일+토요일+공휴일,0:00,23:59,0:00,23:59,0:00,23:59,무료,0,0,,,,,,,,강원도 평창군청,033-330-2285,37.67144694,128.7079641,2022-09-27,4280000,강원도 평창군
PAR-000154,오삼불고기거리 주차장,공영,노외,강원도 평창군 대관령면 횡계2길 3-3,강원도 평창군 대관령면 횡계리 325-10,17,1,미시행,평일+토요일+공휴일,0:00,23:59,0:00,23:59,0:00,23:59,무료,0,0,,,,,,,,강원도 평창군청,033-330-2285,37.67244568,128.7084785,2022-09-27,4280000,강원도 평창군
PAR-000155,하이랜드 옆 1주차장,공영,노외,강원도 평창군 대관령면 횡계2길 331-28,강원도 평창군 대관령면 횡계리 331-28,32,1,미시행,평일+토요일+공휴일,0:00,23:59,0:00,23:59,0:00,23:59,무료,0,0,,,,,,,,강원도 평창군청,033-330-2285,37.673161,128.7092909,2022-09-27,4280000,강원도 평창군
PAR-000156,하이랜드 옆 2주차장,공영,노외,강원도 평창군 대관령면 횡계2길 16,강원도 평창군 대관령면 횡계리 331-12,8,1,미시행,평일+토요일+공휴일,0:00,23:59,0:00,23:59,0:00,23:59,무료,0,0,,,,,,,,강원도 평창군청,033-330-2285,37.67353092,128.7093765,2022-09-27,4280000,강원도 평창군
PAR-000157,하이랜드 옆 3주차장,공영,노외,강원도 평창군 대관령면 눈마을길 57,강원도 평창군 대관령면 횡계리 331-47,11,1,미시행,평일+토요일+공휴일,0:00,23:59,0:00,23:59,0:00,23:59,무료,0,0,,,,,,,,강원도 평창군청,033-330-2285,37.67355649,128.7095638,2022-09-27,4280000,강원도 평창군
PAR-000158,흥일회관 앞 주차장,공영,노외,강원도 평창군 대관령면 횡계3길 3,강원도 평창군 대관령면 횡계리 665,6,1,미시행,평일+토요일+공휴일,0:00,23:59,0:00,23:59,0:00,23:59,무료,0,0,,,,,,,,강원도 평창군청,033-330-2285,37.67439084,128.7089698,2022-09-27,4280000,강원도 평창군
PAR-000159,용평생활관 앞 주차장,공영,노외,강원도 평창군 대관령면 횡계3길 14,강원도 평창군 대관령면 횡계리 331-1,30,1,미시행,평일+토요일+공휴일,0:00,23:59,0:00,23:59,0:00,23:59,무료,0,0,,,,,,,,강원도 평창군청,033-330-2285,37.67532973,128.7090822,2022-09-27,4280000,강원도 평창군
PAR-000160,횡계초등학교 앞 주차장,공영,노외,강원도 평창군 대관령면 꽃밭양지길 16-3,강원도 평창군 대관령면 횡계리 661-50,110,1,미시행,평일+토요일+공휴일,0:00,23:59,0:00,23:59,0:00,23:59,무료,0,0,,,,,,,,강원도 평창군청,033-330-2285,37.67651721,128.7118375,2022-09-27,4280000,강원도 평창군
PAR-000161,제칠안식교회 뒤 주차장,공영,노외,강원도 평창군 대관령면 눈마을길 27,강원도 평창군 대관령면 횡계리 314-24,51,1,미시행,평일+토요일+공휴일,0:00,23:59,0:00,23:59,0:00,23:59,무료,0,0,,,,,,,,강원도 평창군청,033-330-2285,37.67067567,128.7096506,2022-09-27,4280000,강원도 평창군
PAR-000162,로얄장 앞 주차장,민영,노외,강원도 평창군 평창읍 백오로 73,강원도 평창군 평창읍 하리 73-3,20,1,미시행,평일+토요일+공휴일,0:00,23:59,0:00,23:59,0:00,23:59,무료,0,0,,,,,,,,강원도 평창군청,033-330-2285,37.36789127,128.3940315,2022-09-27,4280000,강원도 평창군
PAR-000163,장평농협뒤 주차장,민영,노외,강원도 평창군 용평면 경강로 1667,강원도 평창군 용평면 장평리 365-6,9,1,미시행,평일+토요일+공휴일,0:00,23:59,0:00,23:59,0:00,23:59,무료,0,0,,,,,,,,강원도 평창군청,033-330-2285,37.58703475,128.4148651,2022-09-27,4280000,강원도 평창군
PAR-000164,시청사앞,공영,노상,강원도 태백시 태붐로 21,강원도 태백시 황지동 244-3,21,기타,미시행,평일,0:00,23:59,0:00,0:00,0:00,0:00,무료,0,0,,,,,,,,강원도 태백시청,033-550-2105,37.16421677,128.986554,2022-09-28,4220000,강원도 태백시
PAR-000165,엄목교삼거리,공영,노상,강원도 태백시 오투로 15,강원도 태백시 황지동 274-229,35,기타,미시행,평일,0:00,23:59,0:00,0:00,0:00,0:00,무료,0,0,,,,,,,,강원도 태백시청,033-550-2105,37.17940194,128.9816494,2022-09-28,4220000,강원도 태백시
PAR-000166,엄목교위,공영,노외,강원도 태백시 삼수길 25,강원도 태백시 황지동 621-63,21,기타,미시행,평일,0:00,23:59,0:00,0:00,0:00,0:00,무료,0,0,,,,,,,,강원도 태백시청,033-550-2105,37.17875977,128.9806967,2022-09-28,4220000,강원도 태백시
PAR-000167,먹거리길,공영,노상,강원도 태백시 먹거리길 36,강원도 태백시 황지동 262-77,35,기타,미시행,평일,0:00,23:59,0:00,0:00,0:00,0:00,무료,0,0,,,,,,,,강원도 태백시청,033-550-2105,37.17596264,128.9867044,2022-09-28,4220000,강원도 태백시
PAR-000168,문화마을 2주차장,공영,노외,강원도 평창군 대화면 문화택지길 58,강원도 평창군 대화면 대화리 1962-1,30,1,미시행,평일+토요일+공휴일,0:00,23:59,0:00,23:59,0:00,23:59,무료,0,0,,,,,,,,강원도 평창군청,033-330-2285,37.48938206,128.4542797,2022-09-27,4280000,강원도 평창군
PAR-000169,송정택지 주차공원,공영,노외,강원도 평창군 진부면 송정택지2길 28-20,강원도 평창군 진부면 송정리 2535-1,8,1,미시행,평일+토요일+공휴일,0:00,23:59,0:00,23:59,0:00,23:59,무료,0,0,,,,,,,,강원도 평창군청,033-330-2285,37.63264305,128.5608464,2022-09-27,4280000,강원도 평창군
PAR-000170,문화마을 3주차장,공영,노외,강원도 평창군 대화면 문화택지길 58,강원도 평창군 대화면 대화리 1959,16,1,미시행,평일+토요일+공휴일,0:00,23:59,0:00,23:59,0:00,23:59,무료,0,0,,,,,,,,강원도 평창군청,033-330-2285,37.48938187,128.4542803,2022-09-27,4280000,강원도 평창군
PAR-000171,하진부리(태백주유소뒤)주차장,공영,노외,강원도 평창군 진부면 진부중앙로 100-5,강원도 평창군 진부면 하진부리 1289-30,17,1,미시행,평일+토요일+공휴일,0:00,23:59,0:00,23:59,0:00,23:59,무료,0,0,,,,,,,,강원도 평창군청,033-330-2285,37.63928553,128.5610397,2022-09-27,4280000,강원도 평창군
PAR-000172,한답모퉁이 주차장,공영,노외,강원도 평창군 봉평면 평촌리 602,강원도 평창군 봉평면 평촌리 산1-5,10,1,미시행,평일+토요일+공휴일,0:00,23:59,0:00,23:59,0:00,23:59,무료,0,0,,,,,,,,강원도 평창군청,033-330-2285,37.60488062,128.3763353,2022-09-27,4280000,강원도 평창군
PAR-000173,횡계천둔치주차장,공영,노외,강원도 평창군 대관령면 사부랑길 7,강원도 평창군 대관령면 횡계리 661,46,1,미시행,평일+토요일+공휴일,0:00,23:59,0:00,23:59,0:00,23:59,무료,0,0,,,,,,,,강원도 평창군청,033-330-2285,37.6889518,128.7134941,2022-09-27,4280000,강원도 평창군
PAR-000174,양천,공영,노외,,경상북도 김천시 양천동 392-2,33,1,미시행,평일+토요일+공휴일,0:00,23:59,0:00,23:59,0:00,23:59,무료,0,0,0,0,0,0,0,,,경상북도 김천시,054-420-6844,36.0993889,128.1159515,2022-09-16,5060000,경상북도 김천시
PAR-000175,봉평전통시장 주차장,공영,노외,강원도 평창군 봉평면 애강나무길 109,강원도 평창군 봉평면 창동리 413,57,1,미시행,평일+토요일+공휴일,0:00,23:59,0:00,23:59,0:00,23:59,무료,0,0,,,,,,,,강원도 평창군청,033-330-2285,37.61446786,128.3747719,2022-09-27,4280000,강원도 평창군
PAR-000176,황태회관앞주차장,공영,노외,강원도 평창군 대관령면 눈마을길 9,강원도 평창군 대관령면 횡계리 348-1,44,1,미시행,평일+토요일+공휴일,0:00,23:59,0:00,23:59,0:00,23:59,무료,0,0,,,,,,,,강원도 평창군청,033-330-2285,37.66906061,128.7100083,2022-09-27,4280000,강원도 평창군
PAR-000177,남안교위 둔치 주차장,공영,노외,강원도 평창군 봉평면 기풍3길 3,강원도 평창군 봉평면 창동리 435-1,420,1,미시행,평일+토요일+공휴일,0:00,23:59,0:00,23:59,0:00,23:59,무료,0,0,,,,,,,,강원도 평창군청,033-330-2285,37.61522423,128.3748141,2022-09-27,4280000,강원도 평창군
PAR-000178,장터주차장,공영,노외,강원도 평창군 봉평면 기풍3길 19,강원도 평창군 봉평면 창동리 396-38,170,1,미시행,평일+토요일+공휴일,0:00,23:59,0:00,23:59,0:00,23:59,무료,0,0,,,,,,,,강원도 평창군청,033-330-2285,37.61519852,128.3763936,2022-09-27,4280000,강원도 평창군
PAR-000179,면사무소 앞 주차장,공영,노외,강원도 평창군 봉평면 기풍4길 10,강원도 평창군 봉평면 창동리 345,19,1,미시행,평일+토요일+공휴일,0:00,23:59,0:00,23:59,0:00,23:59,무료,0,0,,,,,,,,강원도 평창군청,033-330-2285,37.61610088,128.3793248,2022-09-27,4280000,강원도 평창군
PAR-000180,봉평축협 앞 주차장,공영,노외,강원도 평창군 봉평면 동이장터길 26,강원도 평창군 봉평면 창동리 379-1,5,1,미시행,평일+토요일+공휴일,0:00,23:59,0:00,23:59,0:00,23:59,무료,0,0,,,,,,,,강원도 평창군청,033-330-2285,37.61699533,128.3767785,2022-09-27,4280000,강원도 평창군
PAR-000181,고려회관 앞 주차장,공영,노외,강원도 평창군 용평면 금송1길 19-7,강원도 평창군 용평면 장평리 349-3,18,1,미시행,평일+토요일+공휴일,0:00,23:59,0:00,23:59,0:00,23:59,무료,0,0,,,,,,,,강원도 평창군청,033-330-2285,37.58515289,128.413325,2022-09-27,4280000,강원도 평창군
PAR-000182,장평장로교회 앞 주차장,공영,노외,강원도 평창군 용평면 금송2길 20-6,강원도 평창군 용평면 장평리 375-3,34,1,미시행,평일+토요일+공휴일,0:00,23:59,0:00,23:59,0:00,23:59,무료,0,0,,,,,,,,강원도 평창군청,033-330-2285,37.58728276,128.4158208,2022-09-27,4280000,강원도 평창군
PAR-000183,진부주공아파트 뒤 주차장,공영,노외,강원도 평창군 진부면 진부중앙로 46,강원도 평창군 진부면 하진부리 13-7,20,1,미시행,평일+토요일+공휴일,0:00,23:59,0:00,23:59,0:00,23:59,무료,0,0,,,,,,,,강원도 평창군청,033-330-2285,37.63557338,128.5574956,2022-09-27,4280000,강원도 평창군
PAR-000184,제일교회 앞 주차장,공영,노외,강원도 평창군 평창읍 노성2길 10,강원도 평창군 평창읍 중리 298-4,20,1,미시행,평일+토요일+공휴일,0:00,23:59,0:00,23:59,0:00,23:59,무료,0,0,,,,,,,,강원도 평창군청,033-330-2285,37.36809267,128.4002507,2022-09-27,4280000,강원도 평창군
PAR-000185,진부전통시장 주차장,공영,노외,강원도 평창군 진부면 진부시장뒷길 27,강원도 평창군 진부면 하진부리 206-17,50,1,미시행,평일+토요일+공휴일,0:00,23:59,0:00,23:59,0:00,23:59,무료,0,0,,,,,,,,강원도 평창군청,033-330-2285,37.63774311,128.5574135,2022-09-27,4280000,강원도 평창군
PAR-000186,진부고등학교 앞 주차장,공영,노외,강원도 평창군 진부면 청송로 64,강원도 평창군 진부면 하진부리 164-12,8,1,미시행,평일+토요일+공휴일,0:00,23:59,0:00,23:59,0:00,23:59,무료,0,0,,,,,,,,강원도 평창군청,033-330-2285,37.63620482,128.5534444,2022-09-27,4280000,강원도 평창군
PAR-000187,두레아트빌 옆 주차장,공영,노외,강원도 평창군 평창읍 노성2길 60,강원도 평창군 평창읍 중리 102,16,1,미시행,평일+토요일+공휴일,0:00,23:59,0:00,23:59,0:00,23:59,무료,0,0,,,,,,,,강원도 평창군청,033-330-2285,37.36838881,128.4035646,2022-09-27,4280000,강원도 평창군
PAR-000188,송정택지 2주차장,공영,노외,강원도 평창군 진부면 송정택지2길 33-10,강원도 평창군 진부면 송정리 2529-2,5,1,미시행,평일+토요일+공휴일,0:00,23:59,0:00,23:59,0:00,23:59,무료,0,0,,,,,,,,강원도 평창군청,033-330-2285,37.6339316,128.5615077,2022-09-27,4280000,강원도 평창군
PAR-000189,송정택지 3주차장,공영,노외,강원도 평창군 진부면 송정택지1길 52-9,강원도 평창군 진부면 송정리 2540,36,1,미시행,평일+토요일+공휴일,0:00,23:59,0:00,23:59,0:00,23:59,무료,0,0,,,,,,,,강원도 평창군청,033-330-2285,37.63513253,128.5619815,2022-09-27,4280000,강원도 평창군
PAR-000190,대화전통시장 주차공원,공영,노외,강원도 평창군 대화면 대화1길 19,강원도 평창군 대화면 대화리 1000-6,40,1,미시행,평일+토요일+공휴일,0:00,23:59,0:00,23:59,0:00,23:59,무료,0,0,,,,,,,,강원도 평창군청,033-330-2285,37.49894413,128.4552091,2022-09-27,4280000,강원도 평창군
PAR-000191,백룡동굴 주차장,공영,노외,강원도 평창군 미탄면 문희길 63,강원도 평창군 미탄면 마하리 82,49,1,미시행,평일+토요일+공휴일,0:00,23:59,0:00,23:59,0:00,23:59,무료,0,0,,,,,,,,강원도 평창군청,033-330-2285,37.27786222,128.5770659,2022-09-27,4280000,강원도 평창군
PAR-000192,백강파크빌 옆 주차장,공영,노외,강원도 평창군 미탄면 창천변길 9,강원도 평창군 미탄면 창리 730,7,1,미시행,평일+토요일+공휴일,0:00,23:59,0:00,23:59,0:00,23:59,무료,0,0,,,,,,,,강원도 평창군청,033-330-2285,37.33946439,128.5006246,2022-09-27,4280000,강원도 평창군
PAR-000193,효석문학관 (소형),공영,노외,강원도 평창군 봉평면 효석문학길 73-25,강원도 평창군 봉평면 창동리 548-3,23,1,미시행,평일+토요일+공휴일,0:00,23:59,0:00,23:59,0:00,23:59,무료,0,0,,,,,,,,강원도 평창군청,033-330-2285,37.61317497,128.3701153,2022-09-27,4280000,강원도 평창군
PAR-000194,평창식당 옆 주차장,공영,노외,강원도 평창군 미탄면 새터길 6,강원도 평창군 미탄면 창리 277-4,14,1,미시행,평일+토요일+공휴일,0:00,23:59,0:00,23:59,0:00,23:59,무료,0,0,,,,,,,,강원도 평창군청,033-330-2285,37.34224023,128.4995716,2022-09-27,4280000,강원도 평창군
PAR-000195,효석문학관 (대형),공영,노외,강원도 평창군 봉평면 효석문학길 73-25,강원도 평창군 봉평면 창동리 530-13,9,1,미시행,평일+토요일+공휴일,0:00,23:59,0:00,23:59,0:00,23:59,무료,0,0,,,,,,,,강원도 평창군청,033-330-2285,37.61317426,128.3701138,2022-09-27,4280000,강원도 평창군
PAR-000196,면사무소옆 주차장,공영,노외,강원도 평창군 봉평면 기풍로 150-2,강원도 평창군 봉평면 창동리 362-2,38,1,미시행,평일+토요일+공휴일,0:00,23:59,0:00,23:59,0:00,23:59,무료,0,0,,,,,,,,강원도 평창군청,033-330-2285,37.6161119,128.3784128,2022-09-27,4280000,강원도 평창군
PAR-000197,카페마커모얘 앞 주차장,공영,노외,강원도 평창군 미탄면 미탄중앙로 6,강원도 평창군 미탄면 창리 693-2,13,1,미시행,평일+토요일+공휴일,0:00,23:59,0:00,23:59,0:00,23:59,무료,0,0,,,,,,,,강원도 평창군청,033-330-2285,37.34125961,128.4978956,2022-09-27,4280000,강원도 평창군
PAR-000198,봉평중고등학교 옆,공영,노외,강원도 평창군 봉평면 기풍3길 17,강원도 평창군 봉평면 창동리 396-38,63,1,미시행,평일+토요일+공휴일,0:00,23:59,0:00,23:59,0:00,23:59,무료,0,0,,,,,,,,강원도 평창군청,033-330-2285,37.61519806,128.3763946,2022-09-27,4280000,강원도 평창군
PAR-000199,운교치안센터 옆 주차장,공영,노외,강원도 평창군 방림면 서동로 275,강원도 평창군 방림면 운교리 959-2,15,1,미시행,평일+토요일+공휴일,0:00,23:59,0:00,23:59,0:00,23:59,무료,0,0,,,,,,,,강원도 평창군청,033-330-2285,37.43063628,128.2850505,2022-09-27,4280000,강원도 평창군
PAR-000200,계촌초등학교 정문 주차장,공영,노외,강원도 평창군 방림면 계촌길 61,강원도 평창군 방림면 계촌리 1486-1,5,1,미시행,평일+토요일+공휴일,0:00,23:59,0:00,23:59,0:00,23:59,무료,0,0,,,,,,,,강원도 평창군청,033-330-2285,37.45205596,128.3040872,2022-09-27,4280000,강원도 평창군
PAR-000201,계방산 주차장,공영,노외,강원도 평창군 용평면 운두령로 743,강원도 평창군 봉평면 노동리 159,30,1,미시행,평일+토요일+공휴일,0:00,23:59,0:00,23:59,0:00,23:59,무료,0,0,,,,,,,,강원도 평창군청,033-330-2285,37.69015156,128.4686436,2022-09-27,4280000,강원도 평창군
PAR-000202,방림복지회관 앞 주차장,공영,노외,강원도 평창군 방림면 서동로 1338-3,강원도 평창군 방림면 방림리 1269,17,1,미시행,평일+토요일+공휴일,0:00,23:59,0:00,23:59,0:00,23:59,무료,0,0,,,,,,,,강원도 평창군청,033-330-2285,37.42556123,128.3940255,2022-09-27,4280000,강원도 평창군
PAR-000203,금당광고 앞 주차장,공영,노외,강원도 평창군 대화면 대화중앙로 52,강원도 평창군 대화면 대화리 942,29,1,미시행,평일+토요일+공휴일,0:00,23:59,0:00,23:59,0:00,23:59,무료,0,0,,,,,,,,강원도 평창군청,033-330-2285,37.49391524,128.4573417,2022-09-27,4280000,강원도 평창군
PAR-000204,오대천둔치주차장,공영,노외,강원도 평창군 진부면 경강로 3554,강원도 평창군 진부면 하진부리 1289-46,167,1,미시행,평일+토요일+공휴일,0:00,23:59,0:00,23:59,0:00,23:59,무료,0,0,,,,,,,,강원도 평창군청,033-330-2285,37.63212044,128.5564901,2022-09-27,4280000,강원도 평창군
PAR-000205,대화전통시장 주차장,공영,노외,강원도 평창군 대화면 대화3길 34,강원도 평창군 대화면 대화리 1001-50,9,1,미시행,평일+토요일+공휴일,0:00,23:59,0:00,23:59,0:00,23:59,무료,0,0,,,,,,,,강원도 평창군청,033-330-2285,37.5004695,128.4543641,2022-09-27,4280000,강원도 평창군
PAR-000206,면사무소앞주차장,공영,노외,강원도 평창군 진부면 석두산2길 13,강원도 평창군 진부면 하진부리 171-3,30,1,미시행,평일+토요일+공휴일,0:00,23:59,0:00,23:59,0:00,23:59,무료,0,0,,,,,,,,강원도 평창군청,033-330-2285,37.63726765,128.553517,2022-09-27,4280000,강원도 평창군
PAR-000207,대화전통시장입구주차장,공영,노외,강원도 평창군 대화면 대화시장2길 23-3,강원도 평창군 대화면 대화리 1001-215,12,1,미시행,평일+토요일+공휴일,0:00,23:59,0:00,23:59,0:00,23:59,무료,0,0,,,,,,,,강원도 평창군청,033-330-2285,37.49988167,128.4538567,2022-09-27,4280000,강원도 평창군
PAR-000208,하진부리(구터미널)주차장,공영,노외,강원도 평창군 진부면 진부시장뒷길 66,강원도 평창군 진부면 하진부리 206-131,35,1,미시행,평일+토요일+공휴일,0:00,23:59,0:00,23:59,0:00,23:59,무료,0,0,,,,,,,,강원도 평창군청,033-330-2285,37.63815035,128.5588564,2022-09-27,4280000,강원도 평창군
PAR-000209,대화면 공원주차장,공영,노외,강원도 평창군 대화면 대화중앙로 95,강원도 평창군 대화면 대화리 967-1,29,1,미시행,평일+토요일+공휴일,0:00,23:59,0:00,23:59,0:00,23:59,무료,0,0,,,,,,,,강원도 평창군청,033-330-2285,37.49745995,128.4554347,2022-09-27,4280000,강원도 평창군
PAR-000210,진부초교앞 주차장,공영,노외,강원도 평창군 진부면 진부새싹길 42,강원도 평창군 진부면 하진부리 206-11,24,1,미시행,평일+토요일+공휴일,0:00,23:59,0:00,23:59,0:00,23:59,무료,0,0,,,,,,,,강원도 평창군청,033-330-2285,37.63852586,128.5574439,2022-09-27,4280000,강원도 평창군
PAR-000211,대사동제3노외,공영,노외,대전광역시 중구 보문산공원로 497번길 72,대전광역시 중구 대사동 142-14,21,4,미시행,평일+토요일+공휴일,0:00,23:59,0:00,23:59,0:00,23:59,무료,0,,,,,,,,,대전광역시 중구청 교통과,042-606-6865,36.31094828,127.4189042,2022-09-16,3650000,대전광역시 중구
PAR-000212,대사동제4노외,공영,노외,,대전광역시 중구 대사동 233-38,9,4,미시행,평일+토요일+공휴일,0:00,23:59,0:00,23:59,0:00,23:59,무료,0,,,,,,,,,대전광역시 중구청 교통과,042-606-6865,36.31678122,127.4208903,2022-09-16,3650000,대전광역시 중구
PAR-000213,대사동제5노외,공영,노외,,대전광역시 중구 대사동 233-191,11,4,미시행,평일+토요일+공휴일,0:00,23:59,0:00,23:59,0:00,23:59,무료,0,,,,,,,,,대전광역시 중구청 교통과,042-606-6865,36.3169709,127.4209979,2022-09-16,3650000,대전광역시 중구
PAR-000214,선화동제4노외,공영,노외,,대전광역시 중구 선화동 381-108,49,2,미시행,평일+토요일+공휴일,0:00,23:59,0:00,23:59,0:00,23:59,무료,0,,,,,,,,,대전광역시 중구청 교통과,042-606-6865,36.32465605,127.4167534,2022-09-16,3650000,대전광역시 중구
PAR-000215,문화2동제1노외,공영,노외,대전광역시 중구 보문산로171번길 34,대전광역시 중구 문화동 571-14,34,2,미시행,평일+토요일+공휴일,0:00,23:59,0:00,23:59,0:00,23:59,무료,0,,,,,,,,,대전광역시 중구청 교통과,042-606-6865,36.30726836,127.3991626,2022-09-16,3650000,대전광역시 중구
PAR-000216,문창시장제2공영주자창,공영,노외,,대전광역시 중구 문창동 122-9,42,4,미시행,평일+토요일,9:00,20:00,8:00,20:00,0:00,0:00,혼합,10,100,10,100,0,2400,43000,현금+카드,,대전광역시 중구청 경제기업과,042-606-7232,36.31553812,127.436165,2022-09-16,3650000,대전광역시 중구
PAR-000217,목동제2노외,공영,노외,대전광역시 중구 동서대로1352번길 29,대전광역시 중구 목동 131-10,51,4,미시행,평일+토요일+공휴일,0:00,23:59,0:00,23:59,0:00,23:59,무료,0,,,,,,,,,대전광역시 중구청 교통과,042-606-6865,36.32893928,127.4099207,2022-09-16,3650000,대전광역시 중구
PAR-000218,태평시장공영주차장,공영,노외,대전광역시 중구 수침로55번길 56,대전광역시 중구 태평동 333-8,120,4,미시행,평일+토요일,8:00,20:00,8:00,20:00,0:00,0:00,혼합,10,100,10,100,0,2400,43000,현금+카드,,대전광역시 중구청 경제기업과,042-606-7232,36.3259447,127.397699,2022-09-16,3650000,대전광역시 중구
PAR-000219,대사동제6노외,공영,노외,대전광역시 중구 충무로74번길 10,대전광역시 중구 대사동 129-6,68,4,미시행,평일+토요일+공휴일,0:00,23:59,0:00,23:59,0:00,23:59,무료,0,,,,,,,,,대전광역시 중구청 교통과,042-606-6865,36.316668,127.424859,2022-09-16,3650000,대전광역시 중구
PAR-000220,대사동제7노외,공영,노외,대전광역시 중구 보문산공원로 505,대전광역시 중구 대사동 203-5,34,4,미시행,평일+토요일+공휴일,0:00,23:59,0:00,23:59,0:00,23:59,무료,0,,,,,,,,,대전광역시 중구청 교통과,042-606-6865,36.3137673,127.4223326,2022-09-16,3650000,대전광역시 중구
PAR-000221,선화동제5노외,공영,노외,,대전광역시 중구 선화동 367-2,37,2,미시행,평일,9:00,18:00,0:00,0:00,0:00,0:00,혼합,10,300,10,200,5,8700,104000,현금,,대전광역시 중구청 교통과,042-606-6865,36.3280732,127.4186346,2022-09-16,3650000,대전광역시 중구
PAR-000222,산성동제3노외,공영,노외,,대전광역시 중구 산성동 164-15,21,2,미시행,평일+토요일+공휴일,0:00,23:59,0:00,23:59,0:00,23:59,무료,0,,,,,,,,,대전광역시 중구청 교통과,042-606-6865,36.30782834,127.3869401,2022-09-16,3650000,대전광역시 중구
PAR-000223,용두동제2노외,공영,노외,,대전광역시 중구 용두동 34-26,13,2,미시행,평일+토요일+공휴일,0:00,23:59,0:00,23:59,0:00,23:59,무료,0,,,,,,,,,대전광역시 중구청 교통과,042-606-6865,36.32725843,127.4078469,2022-09-16,3650000,대전광역시 중구
PAR-000224,석교동제3노외,공영,노외,,대전광역시 중구 석교동 34-26,10,2,미시행,평일+토요일+공휴일,0:00,23:59,0:00,23:59,0:00,23:59,무료,0,,,,,,,,,대전광역시 중구청 교통과,042-606-6865,36.30724824,127.4418674,2022-09-16,3650000,대전광역시 중구
PAR-000225,호동제1노외,공영,노외,,대전광역시 중구 호동 17-12,6,2,미시행,평일+토요일+공휴일,0:00,23:59,0:00,23:59,0:00,23:59,무료,0,,,,,,,,,대전광역시 중구청 교통과,042-606-6865,36.30401515,127.4482491,2022-09-16,3650000,대전광역시 중구
PAR-000226,유천동제1노외,공영,노외,,대전광역시 중구 유천동 276-18,28,2,미시행,평일+토요일+공휴일,0:00,23:59,0:00,23:59,0:00,23:59,무료,0,,,,,,,,,대전광역시 중구청 교통과,042-606-6865,36.31292751,127.3951988,2022-09-16,3650000,대전광역시 중구
PAR-000227,오류동제2노외,공영,노외,대전광역시 중구 계룡로 860-9,대전광역시 중구 오류동 149-3,24,3,미시행,평일+토요일,8:00,22:00,8:00,22:00,0:00,0:00,혼합,10,150,10,150,5,6500,72000,현금,,대전광역시 중구청 교통과,042-606-6865,36.32376733,127.4102098,2022-09-16,3650000,대전광역시 중구
PAR-000228,문창시장공영주차장,공영,노외,대전광역시 중구 대전천서로 279,대전광역시 중구 문창동 116-8,61,3,미시행,평일+토요일,9:00,20:00,8:00,20:00,0:00,0:00,혼합,10,150,10,150,5,6500,72000,현금+카드,,대전광역시 중구청 경제기업과,042-606-7232,36.31561672,127.4384886,2022-09-16,3650000,대전광역시 중구
PAR-000229,유천시장공영주차장,공영,노외,대전광역시 중구 유천로47번길 22,대전광역시 중구 유천동 211-5,53,4,미시행,평일+토요일,8:00,20:00,8:00,20:00,0:00,0:00,혼합,10,100,10,100,12,2400,43000,현금,,대전광역시 중구청 경제기업과,042-606-7232,36.31692977,127.3966599,2022-09-16,3650000,대전광역시 중구
PAR-000230,선화동제2노외,공영,노외,대전광역시 중구 대종로521번길 29,대전광역시 중구 선화동 236-8,33,2,미시행,평일,9:00,18:00,0:00,0:00,0:00,0:00,혼합,10,300,10,200,5,8700,104000,현금,,대전광역시 중구청 교통과,042-606-6865,36.3291468,127.4220455,2022-09-16,3650000,대전광역시 중구
PAR-000231,대흥동제3노외,공영,노외,대전광역시 중구 대흥로111번길 35,대전광역시 중구 대흥동 452-30,53,2,미시행,평일,8:00,22:00,0:00,0:00,0:00,0:00,혼합,10,300,10,200,5,8700,104000,현금,,대전광역시 중구청 교통과,042-606-6865,36.32463693,127.4237318,2022-09-16,3650000,대전광역시 중구
PAR-000232,대흥동제5노외,공영,노외,대전광역시 중구 보문로230번길 37-2,대전광역시 중구 대흥동 452-74,25,2,미시행,평일+토요일+공휴일,0:00,23:59,0:00,23:59,0:00,23:59,무료,0,,,,,,,,,대전광역시 중구청 교통과,042-606-6865,36.32411911,127.4247484,2022-09-16,3650000,대전광역시 중구
PAR-000233,태평2동제3노외,공영,노외,,대전광역시 중구 태평동 378-29,23,4,미시행,평일+토요일+공휴일,0:00,23:59,0:00,23:59,0:00,23:59,무료,0,,,,,,,,,대전광역시 중구청 교통과,042-606-6865,36.32686868,127.3940601,2022-09-16,3650000,대전광역시 중구
PAR-000234,사정동제1노외,공영,노외,,대전광역시 중구 사정동 397,33,4,미시행,평일+토요일+공휴일,0:00,23:59,0:00,23:59,0:00,23:59,무료,0,,,,,,,,,대전광역시 중구청 교통과,042-606-6865,36.29711219,127.3840357,2022-09-16,3650000,대전광역시 중구
PAR-000235,흑산면사무소,공영,노외,,전라남도 신안군 흑산면 진리 314-1,6,2,미시행,평일+토요일+공휴일,0:00,23:59,0:00,23:59,0:00,23:59,무료,0,0,,,,,,,,전라남도 신안군,,,,2022-07-06,5010000,전라남도 신안군
PAR-000236,사정동제2노외,공영,노외,,대전광역시 중구 사정동 403,32,4,미시행,평일+토요일+공휴일,0:00,23:59,0:00,23:59,0:00,23:59,무료,0,,,,,,,,,대전광역시 중구청 교통과,042-606-6865,36.29642442,127.3852018,2022-09-16,3650000,대전광역시 중구
PAR-000237,안영동제1노외,공영,노외,대전광역시 중구 뿌리공원로 47,대전광역시 중구 안영동 71-1,48,4,미시행,평일+토요일+공휴일,0:00,23:59,0:00,23:59,0:00,23:59,무료,0,,,,,,,,,대전광역시 중구청 교통과,042-606-6865,36.28533721,127.3844931,2022-09-16,3650000,대전광역시 중구
PAR-000238,선화동제3노외,공영,노외,대전광역시 중구 선화로 50,대전광역시 중구 선화동 889,22,4,미시행,평일+토요일+공휴일,0:00,23:59,0:00,23:59,0:00,23:59,무료,0,,,,,,,,,대전광역시 중구청 교통과,042-606-6865,36.32671701,127.4144851,2022-09-16,3650000,대전광역시 중구
PAR-000239,산성시장제2노외,공영,노외,대전광역시 중구 대둔산로 412,대전광역시 중구 산성동 284-9,28,4,미시행,평일+토요일+공휴일,8:00,22:00,8:00,22:00,0:00,23:59,혼합,10,100,10,100,12,2400,,현금,,대전광역시 중구청 경제기업과,042-606-7232,36.305887,127.3870556,2022-09-16,3650000,대전광역시 중구
PAR-000240,산성시장제1노외,공영,노외,대전광역시 중구 대둔산로408번길 28,대전광역시 중구 산성동 282-5,45,4,미시행,평일+토요일,8:00,22:00,8:00,22:00,0:00,0:00,혼합,10,100,10,100,12,2400,43000,현금+카드,,대전광역시 중구청 경제기업과,042-606-7232,36.30557678,127.3880136,2022-09-16,3650000,대전광역시 중구
PAR-000241,선화동제1노외,공영,노외,대전광역시 중구 대종로561번길 15,대전광역시 중구 선화동 136-11,113,2,미시행,평일,9:00,18:00,0:00,0:00,0:00,0:00,혼합,10,300,10,200,5,8700,104000,현금+카드,,대전광역시 중구청 교통과,042-606-6865,36.33230442,127.4202841,2022-09-16,3650000,대전광역시 중구
PAR-000242,대흥동제4노외,공영,노외,,대전광역시 중구 대흥동 480,17,2,미시행,평일,8:00,22:00,0:00,0:00,0:00,0:00,혼합,10,300,10,200,5,8700,104000,현금,,대전광역시 중구청 교통과,042-606-6865,36.32608949,127.4225566,2022-09-16,3650000,대전광역시 중구
PAR-000243,부사시장공영주차장,공영,노외,대전광역시 중구 보문로48번길 13,대전광역시 중구 부사동 150-1,32,4,미시행,평일+토요일,8:00,22:00,8:00,22:00,0:00,0:00,혼합,10,100,10,100,14,6500,43000,현금,,대전광역시 중구청 경제기업과,042-606-7232,36.31391761,127.4350412,2022-09-16,3650000,대전광역시 중구
PAR-000244,부사동제4노외,공영,노외,대전광역시 중구 대종로 315번길 34-17,대전광역시 중구 부사동 133-2,9,4,미시행,평일+토요일+공휴일,0:00,23:59,0:00,23:59,0:00,23:59,무료,0,,,,,,,,,대전광역시 중구청 교통과,042-606-6865,36.3143023,127.4333122,2022-09-16,3650000,대전광역시 중구
PAR-000245,안영동제4노외,공영,노외,대전광역시 중구 뿌리공원로 47,대전광역시 중구 안영동 71-7,247,4,미시행,평일+토요일+공휴일,0:00,23:59,0:00,23:59,0:00,23:59,무료,0,,,,,,,,,대전광역시 중구청 교통과,042-606-6865,36.28533721,127.3844931,2022-09-16,3650000,대전광역시 중구
PAR-000246,오류동제3노외,공영,노외,대전광역시 중구 보문산공원로497번길 81-7,대전광역시 중구 대사동 197-6,10,3,미시행,평일+토요일+공휴일,0:00,23:59,0:00,23:59,0:00,23:59,무료,0,,,,,,,,,대전광역시 중구청 교통과,042-606-6865,36.31047717,127.4195651,2022-09-16,3650000,대전광역시 중구
PAR-000247,석교동제2노외,공영,노외,대전광역시 중구 보문로47번길 146,대전광역시 중구 석교동 12-10,17,4,미시행,평일+토요일+공휴일,0:00,23:59,0:00,23:59,0:00,23:59,무료,0,,,,,,,,,대전광역시 중구청 교통과,042-606-6865,36.30986902,127.4425659,2022-09-16,3650000,대전광역시 중구
PAR-000248,용두동제1노외,공영,노외,대전광역시 중구 용두로 17-2,대전광역시 중구 용두동 31-1,42,4,미시행,평일+토요일+공휴일,0:00,23:59,0:00,23:59,0:00,23:59,무료,0,,,,,,,,,대전광역시 중구청 교통과,042-606-6865,36.32616718,127.409629,2022-09-16,3650000,대전광역시 중구
PAR-000249,태평2동제1노외,공영,노외,대전광역시 중구 유등천동로 396,대전광역시 중구 태평동 510-165,22,4,미시행,평일+토요일+공휴일,0:00,23:59,0:00,23:59,0:00,23:59,무료,0,,,,,,,,,대전광역시 중구청 교통과,042-606-6865,36.31705207,127.3868389,2022-09-16,3650000,대전광역시 중구
PAR-000250,태평2동제2노외,공영,노외,대전광역시 중구 유등천동로 396,대전광역시 중구 태평동 423-22,3,4,미시행,평일+토요일+공휴일,0:00,23:59,0:00,23:59,0:00,23:59,무료,0,,,,,,,,,대전광역시 중구청 교통과,042-606-6865,36.31705207,127.3868389,2022-09-16,3650000,대전광역시 중구
PAR-000251,목동제1노외,공영,노외,대전광역시 중구 목동로8번길 68,대전광역시 중구 목동 1-123,33,4,미시행,평일,8:00,22:00,0:00,0:00,0:00,0:00,혼합,10,100,10,100,3,2400,43000,현금,,대전광역시 중구청 교통과,042-606-6865,36.33438828,127.4124509,2022-09-16,3650000,대전광역시 중구
PAR-000252,문화1동제1노외,공영,노외,,대전광역시 중구 문화동 44-2,45,2,미시행,평일+토요일+공휴일,0:00,23:59,0:00,23:59,0:00,23:59,무료,0,,,,,,,,,대전광역시 중구청 교통과,042-606-6865,36.30772838,127.4108213,2022-09-16,3650000,대전광역시 중구
PAR-000253,문화1동제2노외,공영,노외,대전광역시 중구 과례로22번길 49,대전광역시 중구 문화동 114-1,42,2,미시행,평일+토요일+공휴일,0:00,23:59,0:00,23:59,0:00,23:59,무료,0,,,,,,,,,대전광역시 중구청 교통과,042-606-6865,36.30864957,127.4111884,2022-09-16,3650000,대전광역시 중구
PAR-000254,문화1동제3노외,공영,노외,,대전광역시 중구 문화동 263-10,8,2,미시행,평일+토요일+공휴일,0:00,23:59,0:00,23:59,0:00,23:59,무료,0,,,,,,,,,대전광역시 중구청 교통과,042-606-6865,36.31381508,127.4114552,2022-09-16,3650000,대전광역시 중구
PAR-000255,문화1동제4노외,공영,노외,,대전광역시 중구 문화동 259-6,14,2,미시행,평일+토요일+공휴일,0:00,23:59,0:00,23:59,0:00,23:59,무료,0,,,,,,,,,대전광역시 중구청 교통과,042-606-6865,36.31358989,127.4114792,2022-09-16,3650000,대전광역시 중구
PAR-000256,문화1동제5노외,공영,노외,,대전광역시 중구 문화동 231-11,5,2,미시행,평일+토요일+공휴일,0:00,23:59,0:00,23:59,0:00,23:59,무료,0,,,,,,,,,대전광역시 중구청 교통과,042-606-6865,36.31294008,127.4112948,2022-09-16,3650000,대전광역시 중구
PAR-000257,문화1동제6노외,공영,노외,대전광역시 중구 보문산로 345-8,대전광역시 중구 문화동 11-223,11,2,미시행,평일+토요일+공휴일,0:00,23:59,0:00,23:59,0:00,23:59,무료,0,,,,,,,,,대전광역시 중구청 교통과,042-606-6865,36.31352927,127.4146879,2022-09-16,3650000,대전광역시 중구
PAR-000258,문화1동제7노외,공영,노외,,대전광역시 중구 문화동 13-9,22,2,미시행,평일+토요일+공휴일,0:00,23:59,0:00,23:59,0:00,23:59,무료,0,,,,,,,,,대전광역시 중구청 교통과,042-606-6865,36.3148502,127.4143978,2022-09-16,3650000,대전광역시 중구
PAR-000259,부사동제1노외,공영,노외,대전광역시 중구 부용로 55,대전광역시 중구 부사동 423-6,5,4,미시행,평일+토요일+공휴일,0:00,23:59,0:00,23:59,0:00,23:59,무료,0,,,,,,,,,대전광역시 중구청 교통과,042-606-6865,36.30885556,127.4308234,2022-09-16,3650000,대전광역시 중구
PAR-000260,부사동제2노외,공영,노외,대전광역시 중구 부사로32번길 15,대전광역시 중구 부사동 366-3,23,4,미시행,평일+토요일+공휴일,0:00,23:59,0:00,23:59,0:00,23:59,무료,0,,,,,,,,,대전광역시 중구청 교통과,042-606-6865,36.30947338,127.4354324,2022-09-16,3650000,대전광역시 중구
PAR-000261,부사동제3노외,공영,노외,대전광역시 중구 부용로 32,대전광역시 중구 부사동 429-6,8,4,미시행,평일+토요일+공휴일,0:00,23:59,0:00,23:59,0:00,23:59,무료,0,,,,,,,,,대전광역시 중구청 교통과,042-606-6865,36.31077745,127.4306134,2022-09-16,3650000,대전광역시 중구
PAR-000262,안영동제2노외,공영,노외,,대전광역시 중구 안영동 697,75,4,미시행,평일+토요일+공휴일,0:00,23:59,0:00,23:59,0:00,23:59,무료,0,,,,,,,,,대전광역시 중구청 교통과,042-606-6865,36.28529788,127.3825142,2022-09-16,3650000,대전광역시 중구
PAR-000263,안영동제3노외,공영,노외,,대전광역시 중구 안영동 663,26,4,미시행,평일+토요일+공휴일,0:00,23:59,0:00,23:59,0:00,23:59,무료,0,,,,,,,,,대전광역시 중구청 교통과,042-606-6865,36.2905556,127.3796743,2022-09-16,3650000,대전광역시 중구
PAR-000264,침산동제1노외,공영,노외,대전광역시 중구 산서로 180,대전광역시 중구 침산동 360,176,4,미시행,평일+토요일+공휴일,0:00,23:59,0:00,23:59,0:00,23:59,무료,0,,,,,,,,,대전광역시 중구청 교통과,042-606-6865,36.28716232,127.3909063,2022-09-16,3650000,대전광역시 중구
PAR-000265,석교동제1노외,공영,노외,,대전광역시 중구 석교동 244-7,7,4,미시행,평일+토요일+공휴일,0:00,23:59,0:00,23:59,0:00,23:59,무료,0,,,,,,,,,대전광역시 중구청 교통과,042-606-6865,36.30717787,127.4368931,2022-09-16,3650000,대전광역시 중구
PAR-000266,대흥동제1노외,공영,노외,대전광역시 중구 대종로452번길 27,대전광역시 중구 대흥동 125-1,144,2,미시행,평일+토요일,8:00,22:00,8:00,22:00,0:00,0:00,혼합,10,300,10,200,5,8700,104000,현금+카드,,대전광역시 중구청 교통과,042-606-6865,36.32584044,127.4291892,2022-09-16,3650000,대전광역시 중구
PAR-000267,으능정이상점가 고객주차장,공영,노외,대전광역시 중구 중교로 79-1,대전광역시 중구 은행동 170-8,35,2,미시행,평일+토요일,8:00,22:00,8:00,22:00,0:00,0:00,혼합,10,300,10,200,12,8700,,현금+카드,,대전광역시 중구청 경제기업과,042-606-7232,36.32704845,127.4282661,2022-09-16,3650000,대전광역시 중구
PAR-000268,오류동제1노외,공영,노외,,대전광역시 중구 오류동 175-7,7,3,미시행,평일+토요일,8:00,22:00,8:00,22:00,0:00,0:00,혼합,10,150,10,150,5,6500,72000,현금,,대전광역시 중구청 교통과,042-606-6865,36.32320782,127.4099592,2022-09-16,3650000,대전광역시 중구
PAR-000269,문화1동제2노상,공영,노상,대전광역시 중구 계룡로 904번길 30,대전광역시 중구 문화동 1-39,22,2,미시행,평일,8:00,22:00,0:00,0:00,0:00,0:00,혼합,10,300,10,200,5,8700,104000,현금,,대전광역시 중구청 교통과,042-606-6865,36.32092858,127.4119235,2022-09-16,3650000,대전광역시 중구
PAR-000270,문화1동제3노상,공영,노상,대전광역시 중구 계룡로 910,대전광역시 중구 문화동 1-30,28,2,미시행,평일,8:00,22:00,0:00,0:00,0:00,0:00,혼합,10,300,10,200,5,8700,104000,현금,,대전광역시 중구청 교통과,042-606-6865,36.32109597,127.4135315,2022-09-16,3650000,대전광역시 중구
PAR-000271,대흥동제1노상,공영,노상,대전광역시 중구 보문로 230번길 69,대전광역시 중구 대흥동 418-1,21,2,미시행,평일,8:00,22:00,0:00,0:00,0:00,0:00,혼합,10,300,10,200,5,8700,104000,현금,,대전광역시 중구청 교통과,042-606-6865,36.32525301,127.4255734,2022-09-16,3650000,대전광역시 중구
PAR-000272,문화1동제6노상,공영,노상,대전광역시 중구 과례로 66,대전광역시 중구 문화동 19-1,16,2,미시행,평일+토요일+공휴일,0:00,23:59,0:00,23:59,0:00,23:59,무료,0,,,,,,,,,대전광역시 중구청 교통과,042-606-6865,36.31374695,127.4134246,2022-09-16,3650000,대전광역시 중구
PAR-000273,산성동제14노상,공영,노상,대전광역시 중구 유등천동로 298-11,대전광역시 중구 산성동 168-8,18,4,미시행,평일+토요일+공휴일,0:00,23:59,0:00,23:59,0:00,23:59,무료,0,,,,,,,,,대전광역시 중구청 교통과,042-606-6865,36.3084665,127.3856466,2022-09-16,3650000,대전광역시 중구
PAR-000274,석교동제5노상,공영,노상,대전광역시 중구 대종로224번길 28,대전광역시 중구 석교동 58-11,12,4,미시행,평일+토요일+공휴일,0:00,23:59,0:00,23:59,0:00,23:59,무료,0,,,,,,,,,대전광역시 중구청 교통과,042-606-6865,36.30976768,127.4432856,2022-09-16,3650000,대전광역시 중구
PAR-000275,유천1동제4노상,공영,노상,대전광역시 중구 계백로 1565번길 11,대전광역시 중구 유천동 307-1,20,4,미시행,평일+토요일+공휴일,0:00,23:59,0:00,23:59,0:00,23:59,무료,0,,,,,,,,,대전광역시 중구청 교통과,042-606-6865,36.31809379,127.3934231,2022-09-16,3650000,대전광역시 중구
PAR-000276,석교동제4노상,공영,노상,대전광역시 중구 돌다리로8번길 57,대전광역시 중구 석교동 6-6,2,2,미시행,평일+토요일+공휴일,0:00,23:59,0:00,23:59,0:00,23:59,무료,0,,,,,,,,,대전광역시 중구청 교통과,042-606-6865,36.30996836,127.4395552,2022-09-16,3650000,대전광역시 중구
PAR-000277,사정동제3노상,공영,노상,대전광역시 중구 산서로71번길 16,대전광역시 중구 사정동 350-1,17,2,미시행,평일+토요일+공휴일,0:00,23:59,0:00,23:59,0:00,23:59,무료,0,,,,,,,,,대전광역시 중구청 교통과,042-606-6865,36.29663206,127.3904884,2022-09-16,3650000,대전광역시 중구
PAR-000278,산성동제11노상,공영,노상,대전광역시 중구 문화로78번길5,대전광역시 중구 산성동 104-42,9,2,미시행,평일+토요일+공휴일,0:00,23:59,0:00,23:59,0:00,23:59,무료,0,,,,,,,,,대전광역시 중구청 교통과,042-606-6865,36.31119411,127.394592,2022-09-16,3650000,대전광역시 중구
PAR-000279,산성동제12노상,공영,노상,대전광역시 중구 유등천동로292번길 69,대전광역시 중구 산성동 161-4,14,2,미시행,평일+토요일+공휴일,0:00,23:59,0:00,23:59,0:00,23:59,무료,0,,,,,,,,,대전광역시 중구청 교통과,042-606-6865,36.30794957,127.3889332,2022-09-16,3650000,대전광역시 중구
PAR-000280,안영동제2노상,공영,노상,대전광역시 중구 대둔산로200번길 38,대전광역시 중구 안영동 687-2,20,2,미시행,평일+토요일+공휴일,0:00,23:59,0:00,23:59,0:00,23:59,무료,0,,,,,,,,,대전광역시 중구청 교통과,042-606-6865,36.28739026,127.3814071,2022-09-16,3650000,대전광역시 중구
PAR-000281,대흥동제11노상,공영,노상,대전광역시 중구 수도산로47번길 48,대전광역시 중구 대흥동 172-4,13,2,미시행,평일+토요일+공휴일,0:00,23:59,0:00,23:59,0:00,23:59,무료,0,,,,,,,,,대전광역시 중구청 교통과,042-606-6865,36.32350212,127.4281443,2022-09-16,3650000,대전광역시 중구
PAR-000282,은행동제3노상,공영,노상,대전광역시 중구 중앙로 157-2,대전광역시 중구 은행동 330,18,2,미시행,평일+토요일+공휴일,8:00,22:00,8:00,22:00,8:00,22:00,유료,10,300,10,200,0,0,0,현금+카드,,대전광역시 중구청 교통과,042-606-6865,36.32928165,127.4272111,2022-09-16,3650000,대전광역시 중구
PAR-000283,대사동제5노상,공영,노상,,대전광역시 중구 대사동 122-2,14,4,미시행,평일+토요일+공휴일,0:00,23:59,0:00,23:59,0:00,23:59,무료,0,,,,,,,,,대전광역시 중구청 교통과,042-606-6865,36.3153616,127.424938,2022-09-16,3650000,대전광역시 중구
PAR-000284,대사동제6노상,공영,노상,,대전광역시 중구 대사동 147-2,22,4,미시행,평일+토요일+공휴일,0:00,23:59,0:00,23:59,0:00,23:59,무료,0,,,,,,,,,대전광역시 중구청 교통과,042-606-6865,36.31472921,127.4242467,2022-09-16,3650000,대전광역시 중구
PAR-000285,대흥동제12노상,공영,노상,,대전광역시 중구 대흥동 106-49,19,2,미시행,평일+토요일+공휴일,0:00,23:59,0:00,23:59,0:00,23:59,무료,0,,,,,,,,,대전광역시 중구청 교통과,042-606-6865,36.3194294,127.4281664,2022-09-16,3650000,대전광역시 중구
PAR-000286,호동제4노상,공영,노상,,대전광역시 중구 호동 137-2,6,4,미시행,평일+토요일+공휴일,0:00,23:59,0:00,23:59,0:00,23:59,무료,0,,,,,,,,,대전광역시 중구청 교통과,042-606-6865,36.29932199,127.4409496,2022-09-16,3650000,대전광역시 중구
PAR-000287,대흥동제6노외,공영,노외,대전광역시 중구 테미로 20-7,대전광역시 중구 대흥동 326-34,25,2,미시행,평일+토요일+공휴일,0:00,23:59,0:00,23:59,0:00,23:59,무료,0,,,,,,,,,대전광역시 중구청 교통과,042-606-6865,36.31997162,127.4205669,2022-09-16,3650000,대전광역시 중구
PAR-000288,대사동제1노외,공영,노외,대전광역시 중구 보문산공원로497번안길 26,대전광역시 중구 대사동 197,93,4,미시행,평일+토요일+공휴일,0:00,23:59,0:00,23:59,0:00,23:59,무료,0,,,,,,,,,대전광역시 중구청 교통과,042-606-6865,36.31139953,127.4199756,2022-09-16,3650000,대전광역시 중구
PAR-000289,대사동제2노외,공영,노외,대전광역시 중구 보문산공원로497번길 81-7,대전광역시 중구 대사동 197-6,70,4,미시행,평일+토요일+공휴일,0:00,23:59,0:00,23:59,0:00,23:59,무료,0,,,,,,,,,대전광역시 중구청 교통과,042-606-6865,36.31047717,127.4195651,2022-09-16,3650000,대전광역시 중구
PAR-000290,태평2동제1노상,공영,노상,대전광역시 중구 태평로 143,대전광역시 중구 태평동 365-4,43,4,미시행,평일+토요일+공휴일,0:00,23:59,0:00,23:59,0:00,23:59,무료,0,,,,,,,,,대전광역시 중구청 교통과,042-606-6865,36.32938362,127.3962203,2022-09-16,3650000,대전광역시 중구
PAR-000291,태평2동제2노상,공영,노상,대전광역시 중구 유등천동로 500,대전광역시 중구 태평동 414-22,62,4,미시행,평일+토요일+공휴일,0:00,23:59,0:00,23:59,0:00,23:59,무료,0,,,,,,,,,대전광역시 중구청 교통과,042-606-6865,36.3256533,127.3903261,2022-09-16,3650000,대전광역시 중구
PAR-000292,태평2동제3노상,공영,노상,대전광역시 중구 동서대로1207번길 53,대전광역시 중구 태평동 368,154,4,미시행,평일+토요일+공휴일,0:00,23:59,0:00,23:59,0:00,23:59,무료,0,,,,,,,,,대전광역시 중구청 교통과,042-606-6865,36.3285686,127.3949125,2022-09-16,3650000,대전광역시 중구
PAR-000293,태평2동제4노상,공영,노상,대전광역시 중구 유등천동로 554,대전광역시 중구 태평동 364-8,79,4,미시행,평일+토요일+공휴일,0:00,23:59,0:00,23:59,0:00,23:59,무료,0,,,,,,,,,대전광역시 중구청 교통과,042-606-6865,36.32958603,127.3937095,2022-09-16,3650000,대전광역시 중구
PAR-000294,호동제1노상,공영,노상,,대전광역시 중구 호동 351-6,59,4,미시행,평일+토요일+공휴일,0:00,23:59,0:00,23:59,0:00,23:59,무료,0,,,,,,,,,대전광역시 중구청 교통과,042-606-6865,36.30528965,127.4455045,2022-09-16,3650000,대전광역시 중구
PAR-000295,호동제2노상,공영,노상,대전광역시 중구 모암로 13,대전광역시 중구 호동 23-1,37,4,미시행,평일+토요일+공휴일,0:00,23:59,0:00,23:59,0:00,23:59,무료,0,,,,,,,,,대전광역시 중구청 교통과,042-606-6865,36.30307095,127.449074,2022-09-16,3650000,대전광역시 중구
PAR-000296,호동제3노상,공영,노상,대전광역시 중구 모암로14번길 36,대전광역시 중구 호동 17-9,94,4,미시행,평일+토요일+공휴일,0:00,23:59,0:00,23:59,0:00,23:59,무료,0,,,,,,,,,대전광역시 중구청 교통과,042-606-6865,36.30474742,127.4479673,2022-09-16,3650000,대전광역시 중구
PAR-000297,대사동시간제,공영,노상,대전광역시 중구 보문로 160,대전광역시 중구 대사동 97-16,16,2,미시행,평일+토요일+공휴일,10:00,17:00,10:00,17:00,10:00,17:00,무료,0,,,,,,,,,대전광역시 중구청 교통과,042-606-6865,36.31753418,127.4262992,2022-09-16,3650000,대전광역시 중구
PAR-000298,선화동제4노상,공영,노상,대전광역시 중구 중앙로 119,대전광역시 중구 선화동 226,30,2,미시행,평일+토요일,8:00,22:00,8:00,22:00,0:00,0:00,혼합,10,300,10,200,5,8700,104000,현금,,대전광역시 중구청 교통과,042-606-6865,36.32794622,127.4228704,2022-09-16,3650000,대전광역시 중구
PAR-000299,오류동제2노상,공영,노상,대전광역시 중구 계룡로 852,대전광역시 중구 오류동 175-1,53,3,미시행,평일+토요일,8:00,22:00,8:00,22:00,0:00,0:00,혼합,10,150,10,150,5,6500,72000,현금,,대전광역시 중구청 교통과,042-606-6865,36.32526739,127.406635,2022-09-16,3650000,대전광역시 중구
PAR-000300,오류동제3노상,공영,노상,대전광역시 중구 계룡로 852,대전광역시 중구 오류동 175-1,20,3,미시행,평일+토요일,8:00,22:00,8:00,22:00,0:00,0:00,혼합,10,150,10,150,5,6500,72000,현금,,대전광역시 중구청 교통과,042-606-6865,36.32526739,127.406635,2022-09-16,3650000,대전광역시 중구
PAR-000301,오류동제4노상,공영,노상,대전광역시 중구 계룡로 852,대전광역시 중구 오류동 175-1,24,3,미시행,평일+토요일,8:00,22:00,8:00,22:00,0:00,0:00,혼합,10,150,10,150,5,6500,72000,현금,,대전광역시 중구청 교통과,042-606-6865,36.32526739,127.406635,2022-09-16,3650000,대전광역시 중구
PAR-000302,대흥동시간제,공영,노상,대전광역시 중구 대흥로 69,대전광역시 중구 대흥동 508-14,26,2,미시행,평일+토요일+공휴일,10:00,17:00,10:00,17:00,10:00,17:00,무료,0,,,,,,,,,대전광역시 중구청 교통과,042-606-6865,36.32394828,127.4208398,2022-09-16,3650000,대전광역시 중구
PAR-000303,부사동시간제,공영,노상,대전광역시 중구 충무로 139,대전광역시 중구 부사동 87-14,47,2,미시행,평일+토요일+공휴일,10:00,17:00,10:00,17:00,10:00,17:00,무료,0,,,,,,,,,대전광역시 중구청 교통과,042-606-6865,36.31981529,127.4317576,2022-09-16,3650000,대전광역시 중구
PAR-000304,태평동시간제,공영,노상,대전광역시 중구 동서대로1235번길 4,대전광역시 중구 태평동 335-14,9,2,미시행,평일+토요일+공휴일,10:00,17:00,10:00,17:00,10:00,17:00,무료,0,,,,,,,,,대전광역시 중구청 교통과,042-606-6865,36.32669184,127.3972404,2022-09-16,3650000,대전광역시 중구
PAR-000305,유천2동제1시간제,공영,노상,대전광역시 중구 평촌로 84,대전광역시 중구 유천동 196,47,4,미시행,평일+토요일+공휴일,10:00,17:00,10:00,17:00,10:00,17:00,무료,0,,,,,,,,,대전광역시 중구청 교통과,042-606-6865,36.32190918,127.3966211,2022-09-16,3650000,대전광역시 중구
PAR-000306,유천2동제2시간제,공영,노상,대전광역시 중구 계백로 1600,대전광역시 중구 유천동 185-1,72,4,미시행,평일+토요일+공휴일,10:00,17:00,10:00,17:00,10:00,17:00,무료,0,,,,,,,,,대전광역시 중구청 교통과,042-606-6865,36.31822927,127.3978785,2022-09-16,3650000,대전광역시 중구
PAR-000307,선화동제1노상,공영,노상,대전광역시 중구 선화로 119번길 16-3,대전광역시 중구 선화동 139,38,2,미시행,평일,9:00,18:00,0:00,0:00,0:00,0:00,혼합,10,300,10,200,5,8700,104000,현금,,대전광역시 중구청 교통과,042-606-6865,36.33106318,127.4200678,2022-09-16,3650000,대전광역시 중구
PAR-000308,선화동제2노상,공영,노상,대전광역시 중구 선화로 126-10,대전광역시 중구 선화동 243-1,37,2,미시행,평일,9:00,18:00,0:00,0:00,0:00,0:00,혼합,10,300,10,200,5,8700,104000,현금,,대전광역시 중구청 교통과,042-606-6865,36.33033724,127.4210001,2022-09-16,3650000,대전광역시 중구
PAR-000309,선화동제3노상,공영,노상,대전광역시 중구 중앙로 101,대전광역시 중구 선화동 287-2,52,2,미시행,평일+토요일,8:00,22:00,8:00,22:00,0:00,0:00,혼합,10,300,10,200,5,8700,104000,현금,,대전광역시 중구청 교통과,042-606-6865,36.32677115,127.4207316,2022-09-16,3650000,대전광역시 중구
PAR-000310,창선대교 밑 주차장,공영,노상,,경상남도 남해군 삼동면 지족리 291-11,46,2,미시행,평일+토요일,0:00,23:59,0:00,23:59,0:00,0:00,무료,24,0,,,,,,,,경상남도 남해군청,055-860-3455,34.8325509,128.0001578,2022-09-23,5430000,경상남도 남해군
PAR-000311,문화1동제1노상,공영,노상,대전광역시 중구 중앙로16번길 5,대전광역시 중구 문화동 1-21,38,2,미시행,평일,8:00,22:00,0:00,0:00,0:00,0:00,혼합,10,300,10,200,5,8700,104000,현금,,대전광역시 중구청 교통과,042-606-6865,36.32253927,127.4146817,2022-09-16,3650000,대전광역시 중구
PAR-000312,유천1동제3노상,공영,노상,대전광역시 중구 당디로 107,대전광역시 중구 유천동 335-23,104,4,미시행,평일+토요일+공휴일,0:00,23:59,0:00,23:59,0:00,23:59,무료,0,,,,,,,,,대전광역시 중구청 교통과,042-606-6865,36.31437729,127.3912946,2022-09-16,3650000,대전광역시 중구
PAR-000313,유천2동제1노상,공영,노상,대전광역시 중구 문화로 149,대전광역시 중구 유천동 142-14,102,4,미시행,평일+토요일+공휴일,0:00,23:59,0:00,23:59,0:00,23:59,무료,0,,,,,,,,,대전광역시 중구청 교통과,042-606-6865,36.31377283,127.4018983,2022-09-16,3650000,대전광역시 중구
PAR-000314,유천2동제3노상,공영,노상,대전광역시 중구 유천로18번길 68,대전광역시 중구 유천동 141-1,35,4,미시행,평일+토요일+공휴일,0:00,23:59,0:00,23:59,0:00,23:59,무료,0,,,,,,,,,대전광역시 중구청 교통과,042-606-6865,36.31495743,127.402597,2022-09-16,3650000,대전광역시 중구
PAR-000315,유천2동제4노상,공영,노상,대전광역시 중구 유천로34번길 78,대전광역시 중구 유천동 137-1,29,4,미시행,평일+토요일+공휴일,0:00,23:59,0:00,23:59,0:00,23:59,무료,0,,,,,,,,,대전광역시 중구청 교통과,042-606-6865,36.31653954,127.402704,2022-09-16,3650000,대전광역시 중구
PAR-000316,유천2동제5노상,공영,노상,대전광역시 중구 계백로1566번길 57,대전광역시 중구 유천동 297-21,41,4,미시행,평일+토요일+공휴일,0:00,23:59,0:00,23:59,0:00,23:59,무료,0,,,,,,,,,대전광역시 중구청 교통과,042-606-6865,36.31501653,127.3953088,2022-09-16,3650000,대전광역시 중구
PAR-000317,유천2동제6노상,공영,노상,대전광역시 중구 문화로105번길 30,대전광역시 중구 유천동 272-1,68,4,미시행,평일+토요일+공휴일,0:00,23:59,0:00,23:59,0:00,23:59,무료,0,,,,,,,,,대전광역시 중구청 교통과,042-606-6865,36.31360908,127.396991,2022-09-16,3650000,대전광역시 중구
PAR-000318,은행동제2노상,공영,노상,대전광역시 중구 대종로 528,대전광역시 중구 은행동 24-8,8,2,미시행,평일+토요일+공휴일,0:00,23:59,0:00,23:59,0:00,23:59,무료,0,,,,,,,,,대전광역시 중구청 교통과,042-606-6865,36.33098666,127.4238228,2022-09-16,3650000,대전광역시 중구
PAR-000319,중촌동제1노상,공영,노상,대전광역시 중구 목중로26번길 29,대전광역시 중구 중촌동 16-1,70,3,미시행,평일+토요일+공휴일,0:00,23:59,0:00,23:59,0:00,23:59,무료,0,,,,,,,,,대전광역시 중구청 교통과,042-606-6865,36.33861226,127.4109113,2022-09-16,3650000,대전광역시 중구
PAR-000320,중촌동제2노상,공영,노상,대전광역시 중구 목중로 50,대전광역시 중구 중촌동 16-10,16,3,미시행,평일+토요일+공휴일,0:00,23:59,0:00,23:59,0:00,23:59,무료,0,,,,,,,,,대전광역시 중구청 교통과,042-606-6865,36.3378398,127.4096161,2022-09-16,3650000,대전광역시 중구
PAR-000321,중촌동제3노상,공영,노상,대전광역시 중구 동서대로1421번길 28,대전광역시 중구 중촌동 405-3,18,3,미시행,평일+토요일+공휴일,0:00,23:59,0:00,23:59,0:00,23:59,무료,0,,,,,,,,,대전광역시 중구청 교통과,042-606-6865,36.33612296,127.4128149,2022-09-16,3650000,대전광역시 중구
PAR-000322,중촌동제4노상,공영,노상,대전광역시 중구 대전천서로 616,대전광역시 중구 중촌동 382-1,120,3,미시행,평일+토요일+공휴일,0:00,23:59,0:00,23:59,0:00,23:59,무료,0,,,,,,,,,대전광역시 중구청 교통과,042-606-6865,36.33855904,127.4159804,2022-09-16,3650000,대전광역시 중구
PAR-000323,중촌동제5노상,공영,노상,대전광역시 중구 대종로 634,대전광역시 중구 중촌동 14-1,11,3,미시행,평일+토요일+공휴일,0:00,23:59,0:00,23:59,0:00,23:59,무료,0,,,,,,,,,대전광역시 중구청 교통과,042-606-6865,36.33842277,127.4147891,2022-09-16,3650000,대전광역시 중구
PAR-000324,중촌동제6노상,공영,노상,대전광역시 중구 대종로 634,대전광역시 중구 중촌동 14-1,23,3,미시행,평일+토요일+공휴일,0:00,23:59,0:00,23:59,0:00,23:59,무료,0,,,,,,,,,대전광역시 중구청 교통과,042-606-6865,36.33842277,127.4147891,2022-09-16,3650000,대전광역시 중구
PAR-000325,중촌동제7노상,공영,노상,대전광역시 중구 대종로 661,대전광역시 중구 중촌동 102-1,19,3,미시행,평일+토요일+공휴일,0:00,23:59,0:00,23:59,0:00,23:59,무료,0,,,,,,,,,대전광역시 중구청 교통과,042-606-6865,36.33901906,127.4126086,2022-09-16,3650000,대전광역시 중구
PAR-000326,중촌동제8노상,공영,노상,대전광역시 중구 어덕마을로 160-10,대전광역시 중구 중촌동 25-7,49,3,미시행,평일+토요일+공휴일,0:00,23:59,0:00,23:59,0:00,23:59,무료,0,,,,,,,,,대전광역시 중구청 교통과,042-606-6865,36.34254883,127.4103435,2022-09-16,3650000,대전광역시 중구
PAR-000327,중촌동제9노상,공영,노상,대전광역시 중구 목중로26번길 29,대전광역시 중구 중촌동 16-1,40,3,미시행,평일+토요일+공휴일,0:00,23:59,0:00,23:59,0:00,23:59,무료,0,,,,,,,,,대전광역시 중구청 교통과,042-606-6865,36.33861226,127.4109113,2022-09-16,3650000,대전광역시 중구
PAR-000328,태평1동제1노상,공영,노상,대전광역시 중구 수침로 54-3,대전광역시 중구 태평동 278-14,70,4,미시행,평일+토요일+공휴일,0:00,23:59,0:00,23:59,0:00,23:59,무료,0,,,,,,,,,대전광역시 중구청 교통과,042-606-6865,36.32443408,127.4011119,2022-09-16,3650000,대전광역시 중구
PAR-000329,태평1동제2노상,공영,노상,대전광역시 중구 수침로 54-22,대전광역시 중구 태평동 281-12,21,4,미시행,평일+토요일+공휴일,0:00,23:59,0:00,23:59,0:00,23:59,무료,0,,,,,,,,,대전광역시 중구청 교통과,042-606-6865,36.32403193,127.4020094,2022-09-16,3650000,대전광역시 중구
PAR-000330,태평1동제3노상,공영,노상,대전광역시 중구 계백로1653번길 133,대전광역시 중구 태평동 278-1,25,4,미시행,평일+토요일+공휴일,0:00,23:59,0:00,23:59,0:00,23:59,무료,0,,,,,,,,,대전광역시 중구청 교통과,042-606-6865,36.32570773,127.4016161,2022-09-16,3650000,대전광역시 중구
PAR-000331,태평1동제5노상,공영,노상,대전광역시 중구 동서대로1273번길 31,대전광역시 중구 태평동 255-6,14,4,미시행,평일+토요일+공휴일,0:00,23:59,0:00,23:59,0:00,23:59,무료,0,,,,,,,,,대전광역시 중구청 교통과,042-606-6865,36.32896935,127.4004663,2022-09-16,3650000,대전광역시 중구
PAR-000332,태평1동제6노상,공영,노상,대전광역시 중구 수침로 138,대전광역시 중구 태평동 253-1,49,4,미시행,평일+토요일+공휴일,0:00,23:59,0:00,23:59,0:00,23:59,무료,0,,,,,,,,,대전광역시 중구청 교통과,042-606-6865,36.33232854,127.3981832,2022-09-16,3650000,대전광역시 중구
PAR-000333,월포마을 2주차장,공영,노외,경상남도 남해군 남면 남서대로 611-17,경상남도 남해군 남면 석교리 1034-1,100,2,미시행,평일+토요일,0:00,23:59,0:00,23:59,0:00,0:00,무료,24,0,,,,,,,,경상남도 남해군청,055-860-3455,34.76717298,127.9050425,2022-09-23,5430000,경상남도 남해군
PAR-000334,탑동로 주차장,공영,노외,경상남도 남해군 고현면 탑동로 51,경상남도 남해군 고현면 대사리 663,52,2,미시행,평일+토요일,0:00,23:59,0:00,23:59,0:00,0:00,무료,24,0,,,,,,,,경상남도 남해군청,055-860-3455,34.89573715,127.8733019,2022-09-23,5430000,경상남도 남해군
PAR-000335,당두선착장,공영,노외,,전라남도 신안군 하의면 대리 522-57,10,2,미시행,평일+토요일+공휴일,0:00,23:59,0:00,23:59,0:00,23:59,무료,0,0,,,,,,,,전라남도 신안군,,,,2022-07-06,5010000,전라남도 신안군
PAR-000336,고현시장 주차장,공영,노외,경상남도 남해군 고현면 탑동로 68-2,경상남도 남해군 고현면 대사리 768,12,2,미시행,평일+토요일,0:00,23:59,0:00,23:59,0:00,0:00,무료,24,0,,,,,,,,경상남도 남해군청,055-860-3455,34.89701834,127.8728264,2022-09-23,5430000,경상남도 남해군
PAR-000337,이락사 주차장,공영,노외,경상남도 남해군 고현면 남해대로 3829,경상남도 남해군 고현면 차면리 107,72,2,미시행,평일+토요일,0:00,23:59,0:00,23:59,0:00,0:00,무료,24,0,,,,,,,,경상남도 남해군청,055-860-3455,34.91252187,127.8578101,2022-09-23,5430000,경상남도 남해군
PAR-000338,미조면 공영주차장,공영,노외,경상남도 남해군 미조면 미송로 60,경상남도 남해군 미조면 미조리 102,38,2,미시행,평일+토요일,0:00,23:59,0:00,23:59,0:00,0:00,무료,24,0,,,,,,,,경상남도 남해군청,055-860-3455,34.71203221,128.0459923,2022-09-23,5430000,경상남도 남해군
PAR-000339,북항 주차장,공영,노외,,경상남도 남해군 미조면 미조리 107,21,2,미시행,평일+토요일,0:00,23:59,0:00,23:59,0:00,0:00,무료,24,0,,,,,,,,경상남도 남해군청,055-860-3455,34.71277134,128.0446612,2022-09-23,5430000,경상남도 남해군
PAR-000340,미조 체육공원 주차장,공영,노외,,경상남도 남해군 미조면 송정리 1258-1,79,2,미시행,평일+토요일,0:00,23:59,0:00,23:59,0:00,0:00,무료,24,0,,,,,,,,경상남도 남해군청,055-860-3455,34.72714846,128.0264315,2022-09-23,5430000,경상남도 남해군
PAR-000341,송정솔바람해변 주차장,공영,노외,,경상남도 남해군 미조면 송정리 1130,120,2,미시행,평일+토요일,0:00,23:59,0:00,23:59,0:00,0:00,무료,24,0,,,,,,,,경상남도 남해군청,055-860-3455,34.7234311,128.0248128,2022-09-23,5430000,경상남도 남해군
PAR-000342,설리해수욕장 주차장,공영,노외,,경상남도 남해군 미조면 송정리 961-5,58,2,미시행,평일+토요일,0:00,23:59,0:00,23:59,0:00,0:00,무료,24,0,,,,,,,,경상남도 남해군청,055-860-3455,34.70472766,128.0265317,2022-09-23,5430000,경상남도 남해군
PAR-000343,물건항 주차장,공영,노외,경상남도 남해군 삼동면 동부대로1030번길 39,경상남도 남해군 삼동면 물건리 484,94,2,미시행,평일+토요일,0:00,23:59,0:00,23:59,0:00,0:00,무료,24,0,,,,,,,,경상남도 남해군청,055-860-3455,34.79419594,128.0508291,2022-09-23,5430000,경상남도 남해군
PAR-000344,물건 어부림 주차장,공영,노외,,경상남도 남해군 삼동면 물건리 479,57,2,미시행,평일+토요일,0:00,23:59,0:00,23:59,0:00,0:00,무료,24,0,,,,,,,,경상남도 남해군청,055-860-3455,34.79580002,128.0499545,2022-09-23,5430000,경상남도 남해군
PAR-000345,상주은모래비치 주차장,공영,노외,,경상남도 남해군 상주면 상주리 1227,350,2,미시행,평일+토요일,0:00,23:59,0:00,23:59,0:00,0:00,무료,24,0,,,,,,,,경상남도 남해군청,055-860-3455,34.72255623,127.9881147,2022-09-23,5430000,경상남도 남해군
PAR-000346,한려체육공원 주차장,공영,노외,,경상남도 남해군 상주면 상주리 1781-9,128,2,미시행,평일+토요일,0:00,23:59,0:00,23:59,0:00,0:00,무료,24,0,,,,,,,,경상남도 남해군청,055-860-3455,34.72331334,127.9811143,2022-09-23,5430000,경상남도 남해군
PAR-000347,노량주차장,공영,노외,,경상남도 남해군 설천면 노량리 410-36,157,2,미시행,평일+토요일,0:00,23:59,0:00,23:59,0:00,0:00,무료,24,0,,,,,,,,경상남도 남해군청,055-860-3455,34.93989504,127.8749647,2022-09-23,5430000,경상남도 남해군
PAR-000348,이동공설시장주차장,공영,노외,,경상남도 남해군 이동면 무림리 1802,29,2,미시행,평일+토요일,0:00,23:59,0:00,23:59,0:00,0:00,무료,24,0,,,,,,,,경상남도 남해군청,055-860-3455,34.79842859,127.9544864,2022-09-23,5430000,경상남도 남해군
PAR-000349,화계공원내주차장,공영,노외,,경상남도 남해군 이동면 화계리 104-1,20,2,미시행,평일+토요일,0:00,23:59,0:00,23:59,0:00,0:00,무료,24,0,,,,,,,,경상남도 남해군청,055-860-3455,34.77843883,127.9433101,2022-09-23,5430000,경상남도 남해군
PAR-000350,면소재지 복개 주차장,공영,노외,,경상남도 남해군 창선면 상죽리 668,73,2,미시행,평일+토요일,0:00,23:59,0:00,23:59,0:00,0:00,무료,24,0,,,,,,,,경상남도 남해군청,055-860-3455,34.85809234,128.0134858,2022-09-23,5430000,경상남도 남해군
PAR-000351,단항회센타 앞 주차장,공영,노외,,경상남도 남해군 창선면 대벽리 6-5,130,2,미시행,평일+토요일,0:00,23:59,0:00,23:59,0:00,0:00,무료,24,0,,,,,,,,경상남도 남해군청,055-860-3455,34.91666214,128.0303413,2022-09-23,5430000,경상남도 남해군
PAR-000352,남해읍 공영주차장,공영,노외,,경상남도 남해군 남해읍 북변리 321-5,224,3,미시행,평일+토요일,0:00,23:59,0:00,23:59,0:00,0:00,무료,24,0,,,,,,,,경상남도 남해군청,055-860-3455,34.84096232,127.8979757,2022-09-23,5430000,경상남도 남해군
PAR-000353,가야슈퍼-동창이용원 주차장,공영,노상,,경상남도 의령군 의령읍 동동리 1445-1,20,1,미시행,평일+토요일+공휴일,0:00,23:59,0:00,23:59,0:00,23:59,무료,0,0,,,,,,,,경상남도 의령군청,055-570-3100,35.3218049,128.2634877,2022-09-20,5390000,경상남도 의령군
PAR-000354,의령향교-의령택시 주차장,공영,노상,,경상남도 의령군 의령읍 서동리 1022-16,14,1,미시행,평일+토요일+공휴일,0:00,23:59,0:00,23:59,0:00,23:59,무료,0,0,,,,,,,,경상남도 의령군청,055-570-3100,35.32161684,128.2580654,2022-09-20,5390000,경상남도 의령군
PAR-000355,학생백화점~향교 주차장,공영,노상,경상남도 남해군 남해읍 망운로10번길 34,경상남도 남해군 남해읍 북변리 290-3,23,2,미시행,평일+토요일,0:00,23:59,0:00,23:59,0:00,0:00,무료,24,0,,,,,,,,경상남도 남해군청,055-860-3455,34.8411541,127.8930155,2022-09-23,5430000,경상남도 남해군
PAR-000356,군청뒷편 주차장,공영,노상,,경상남도 남해군 남해읍 서변리 27-4,24,2,미시행,평일+토요일,0:00,23:59,0:00,23:59,0:00,0:00,무료,24,0,,,,,,,,경상남도 남해군청,055-860-3455,34.83769481,127.8918762,2022-09-23,5430000,경상남도 남해군
PAR-000357,남면사무소 앞 노상주차장,공영,노상,,경상남도 남해군 남면 당항리 2112-10,67,2,미시행,평일+토요일,0:00,23:59,0:00,23:59,0:00,0:00,무료,24,0,,,,,,,,경상남도 남해군청,055-860-3455,34.77340326,127.8867174,2022-09-23,5430000,경상남도 남해군
PAR-000358,가천다랭이마을 주차장,공영,노상,,경상남도 남해군 남면 홍현리 840-4,33,2,미시행,평일+토요일,0:00,23:59,0:00,23:59,0:00,0:00,무료,24,0,,,,,,,,경상남도 남해군청,055-860-3455,34.72797292,127.8911214,2022-09-23,5430000,경상남도 남해군
PAR-000359,창선 면소재지 주차장,공영,노상,,경상남도 남해군 창선면 상죽리 101-29,73,2,미시행,평일+토요일,0:00,23:59,0:00,23:59,0:00,0:00,무료,24,0,,,,,,,,경상남도 남해군청,055-860-3455,34.85768033,128.012782,2022-09-23,5430000,경상남도 남해군
PAR-000360,화방사주차장,공영,노상,,경상남도 남해군 고현면 대곡리 1149-4,55,2,미시행,평일+토요일,0:00,23:59,0:00,23:59,0:00,0:00,무료,24,0,,,,,,,,경상남도 남해군청,055-860-3455,34.86545156,127.8649842,2022-09-23,5430000,경상남도 남해군
PAR-000361,지족1어항 주차장,공영,노상,,경상남도 남해군 삼동면 지족리 1036-7,48,2,미시행,평일+토요일,0:00,23:59,0:00,23:59,0:00,0:00,무료,24,0,,,,,,,,경상남도 남해군청,055-860-3455,34.83275199,127.9927782,2022-09-23,5430000,경상남도 남해군
PAR-000362,삼동보건소 앞 주차장,공영,노상,,경상남도 남해군 삼동면 지족리 266-19,13,2,미시행,평일+토요일,0:00,23:59,0:00,23:59,0:00,0:00,무료,24,0,,,,,,,,경상남도 남해군청,055-860-3455,34.83238752,128.0012809,2022-09-23,5430000,경상남도 남해군
PAR-000363,바람흔적미술관 앞,공영,노상,,경상남도 남해군 삼동면 봉화리 2005-1,30,2,미시행,평일+토요일,0:00,23:59,0:00,23:59,0:00,0:00,무료,24,0,,,,,,,,경상남도 남해군청,055-860-3455,34.76362227,128.0122825,2022-09-23,5430000,경상남도 남해군
PAR-000364,화방사주차장,공영,노상,,경상남도 남해군 고현면 대곡리 1201-1,15,2,미시행,평일+토요일,0:00,23:59,0:00,23:59,0:00,0:00,무료,24,0,,,,,,,,경상남도 남해군청,055-860-3455,34.86808032,127.8649277,2022-09-23,5430000,경상남도 남해군
PAR-000365,남면주차장,공영,노상,경상남도 남해군 남면 남서대로 758-1,경상남도 남해군 남면 당항리 1481-5,73,2,미시행,평일+토요일,0:00,23:59,0:00,23:59,0:00,0:00,무료,24,0,,,,,,,,경상남도 남해군청,055-860-3455,34.77089129,127.8889632,2022-09-23,5430000,경상남도 남해군
PAR-000366,빛담촌주차장,공영,노상,,경상남도 남해군 남면 선구리 1405,22,2,미시행,평일+토요일,0:00,23:59,0:00,23:59,0:00,0:00,무료,24,0,,,,,,,,경상남도 남해군청,055-860-3455,34.72993103,127.8678164,2022-09-23,5430000,경상남도 남해군
PAR-000367,석교리 주차장,공영,노상,,경상남도 남해군 남면 석교리 183,19,2,미시행,평일+토요일,0:00,23:59,0:00,23:59,0:00,0:00,무료,24,0,,,,,,,,경상남도 남해군청,055-860-3455,34.76037984,127.9033965,2022-09-23,5430000,경상남도 남해군
PAR-000368,가천주차장,공영,노상,,경상남도 남해군 남면 홍현리 744-1,15,2,미시행,평일+토요일,0:00,23:59,0:00,23:59,0:00,0:00,무료,24,0,,,,,,,,경상남도 남해군청,055-860-3455,34.72954079,127.8956357,2022-09-23,5430000,경상남도 남해군
PAR-000369,동대만휴게소주차장,공영,노상,,경상남도 남해군 창선면 동대리 482-20,20,2,미시행,평일+토요일,0:00,23:59,0:00,23:59,0:00,0:00,무료,24,0,,,,,,,,경상남도 남해군청,055-860-3455,34.87245374,128.009355,2022-09-23,5430000,경상남도 남해군
PAR-000370,공설운동장 주차장,공영,노외,,경상남도 남해군 남해읍 서변리 491,195,2,미시행,평일+토요일,0:00,23:59,0:00,23:59,0:00,0:00,무료,24,0,,,,,,,,경상남도 남해군청,055-860-3455,34.83464722,127.892329,2022-09-23,5430000,경상남도 남해군
PAR-000371,사촌해수욕장 1주차장,공영,노외,경상남도 남해군 남면 남면로1229번길 36-12,경상남도 남해군 남면 임포리 1173,40,2,미시행,평일+토요일,0:00,23:59,0:00,23:59,0:00,0:00,무료,24,0,,,,,,,,경상남도 남해군청,055-860-3455,34.74264669,127.8568309,2022-09-23,5430000,경상남도 남해군
PAR-000372,사촌해수욕장 2주차장,공영,노외,,경상남도 남해군 남면 임포리 1195-2,37,2,미시행,평일+토요일,0:00,23:59,0:00,23:59,0:00,0:00,무료,24,0,,,,,,,,경상남도 남해군청,055-860-3455,34.74513051,127.8549628,2022-09-23,5430000,경상남도 남해군
PAR-000373,선구마을 내 주차장,공영,노외,,경상남도 남해군 남면 선구리 1310-17,10,2,미시행,평일+토요일,0:00,23:59,0:00,23:59,0:00,0:00,무료,24,0,,,,,,,,경상남도 남해군청,055-860-3455,34.73722821,127.8576886,2022-09-23,5430000,경상남도 남해군
PAR-000374,월포마을 1주차장,공영,노외,,경상남도 남해군 남면 석교리 149,25,2,미시행,평일+토요일,0:00,23:59,0:00,23:59,0:00,0:00,무료,24,0,,,,,,,,경상남도 남해군청,055-860-3455,34.76172793,127.904052,2022-09-23,5430000,경상남도 남해군
PAR-000375,구래1,공영,노외,,경기도 김포시 구래동 6878-1,46,1,미시행,평일+토요일,10:00,23:00,10:00,23:00,0:00,0:00,유료,30,600,10,300,,7000,80000,신용카드,,김포도시관리공사,031-996-6584,37.64512147,126.6223749,2022-09-27,4090000,경기도 김포시
PAR-000376,장기7,공영,노외,경기도 김포시 김포한강3로 291,경기도 김포시 장기동 1888-18,321,1,미시행,평일+토요일,9:00,22:00,9:00,22:00,0:00,0:00,유료,30,600,10,300,,7000,80000,신용카드,,김포도시관리공사,031-996-6584,37.64171447,126.6587441,2022-09-27,4090000,경기도 김포시
PAR-000377,학운1,공영,노외,,경기도 김포시 양촌읍 학운리3307,91,1,미시행,평일+토요일,9:00,22:00,9:00,22:00,0:00,0:00,유료,30,600,10,300,,7000,80000,신용카드,,김포도시관리공사,031-996-6584,37.60502339,126.5928819,2022-09-27,4090000,경기도 김포시
PAR-000378,양곡1,공영,노외,,경기도 김포시 양촌읍 양곡리 1549,46,1,미시행,평일,9:00,19:00,0:00,0:00,0:00,0:00,유료,30,600,10,300,,7000,40000,현금+신용카드,"장날휴무(1일+6일), 주간 정기권만 가능",김포도시관리공사,031-996-6584,37.65686268,126.625061,2022-09-27,4090000,경기도 김포시
PAR-000379,마산1,공영,노외,,경기도 김포시 마산동 645-24,55,1,미시행,평일+토요일,9:00,23:00,9:00,23:59,0:00,0:00,유료,30,600,10,300,,7000,80000,신용카드,,김포도시관리공사,031-996-6584,37.63855822,126.6453578,2022-09-27,4090000,경기도 김포시
PAR-000380,마산2,공영,노외,,경기도 김포시 마산동 662-14,30,1,미시행,평일+토요일,9:00,23:00,9:00,23:59,0:00,0:00,유료,30,600,10,300,,7000,80000,신용카드,,김포도시관리공사,031-996-6584,37.63428142,126.645122,2022-09-27,4090000,경기도 김포시
PAR-000381,운양동행복나눔공영주차장,공영,노외,,경기도 김포시 운양동 1329-2,20,1,미시행,평일+토요일+공휴일,0:00,23:59,0:00,23:59,0:00,23:59,무료,0,0,,,,,,,,경기도 김포시청,031-980-2330,37.65134703,126.6821227,2022-09-27,4090000,경기도 김포시
PAR-000382,풍무동행복나눔공영주차장,공영,노외,,경기도 김포시 풍무동 802,25,1,미시행,평일+토요일+공휴일,9:00,18:00,0:00,23:59,0:00,23:59,무료,0,0,,,,,,,,경기도 김포시청,031-980-2330,37.6026531,126.7220135,2022-09-27,4090000,경기도 김포시
PAR-000383,풍무역 노외 공영주차장,공영,노외,,경기도 김포시 풍무동 333-4,99,1,미시행,평일+토요일+공휴일,9:00,23:59,9:00,23:59,0:00,23:59,유료,30,600,10,300,,7000,80000,신용카드,,김포도시관리공사,031-996-6584,37.61000754,126.7334902,2022-09-27,4090000,경기도 김포시
PAR-000384,마송 공영주차장,공영,노외,,경기도 김포시 통진읍 마송리 104-112,53,1,미시행,평일+토요일+공휴일,0:00,23:59,0:00,23:59,0:00,23:59,무료,0,0,,,,,,,,김포도시관리공사,031-996-6584,37.68887488,126.6012219,2022-09-27,4090000,경기도 김포시
PAR-000385,장기노외 공영주차장,공영,노외,,경기도 김포시 장기동 2036-5,45,1,미시행,평일+토요일+공휴일,0:00,23:59,0:00,23:59,0:00,23:59,무료,0,0,,,,,,,,경기도 김포시청,031-980-2330,37.64014237,126.6747155,2022-09-27,4090000,경기도 김포시
PAR-000386,남해읍간선도로공영주차장,공영,노상,,경상남도 남해군 남해읍 북변리 634,65,1,미시행,평일+토요일,8:00,20:00,0:00,23:59,0:00,0:00,유료,10,0,10,500,,,,현금,경차 50프로 할인,경상남도 남해군청,055-860-3455,34.83934308,127.8939838,2022-09-23,5430000,경상남도 남해군
PAR-000387,남해읍일반도로공영주차장,공영,노상,,경상남도 남해군 남해읍 북변리 96-4,36,2,미시행,평일+토요일,8:00,20:00,0:00,23:59,0:00,0:00,유료,10,200,10,200,,,,현금,경차 50프로 할인,경상남도 남해군청,055-860-3455,34.83799862,127.895683,2022-09-23,5430000,경상남도 남해군
PAR-000388,농협옆 유료주차장,공영,노상,,경상남도 남해군 남해읍 북변리 287-2,16,2,미시행,평일+토요일,8:00,20:00,0:00,23:59,0:00,0:00,유료,10,200,10,200,,,,현금,경차 50프로 할인,경상남도 남해군청,055-860-3455,34.84105344,127.8936596,2022-09-23,5430000,경상남도 남해군
PAR-000389,아산공영유료주차장,공영,노상,,경상남도 남해군 남해읍 아산리 497-3,69,3,미시행,평일+토요일,8:00,20:00,0:00,23:59,0:00,0:00,유료,10,100,10,100,,,,현금,경차 50프로 할인,경상남도 남해군청,055-860-3455,34.83763567,127.8849426,2022-09-23,5430000,경상남도 남해군
PAR-000390,남해초등학교옆주차장,공영,노상,,경상남도 남해군 남해읍 아산리 367-3,27,2,미시행,평일+토요일,0:00,23:59,0:00,23:59,0:00,0:00,무료,24,0,,,,,,,,경상남도 남해군청,055-860-3455,34.83868894,127.8918385,2022-09-23,5430000,경상남도 남해군
PAR-000391,화전도서관 옆 주차장,공영,노상,,경상남도 남해군 남해읍 아산리 355-5,24,2,미시행,평일+토요일,0:00,23:59,0:00,23:59,0:00,0:00,무료,24,0,,,,,,,,경상남도 남해군청,055-860-3455,34.83836405,127.8909021,2022-09-23,5430000,경상남도 남해군
PAR-000392,군청앞 도로변 주차장,공영,노상,,경상남도 남해군 남해읍 서변리 52-2,16,2,미시행,평일+토요일,0:00,23:59,0:00,23:59,0:00,0:00,무료,24,0,,,,,,,,경상남도 남해군청,055-860-3455,34.83677681,127.8932456,2022-09-23,5430000,경상남도 남해군
PAR-000393,유림사거리~남해병원 주차장,공영,노상,,경상남도 남해군 남해읍 북변리 558-2,31,2,미시행,평일+토요일,0:00,23:59,0:00,23:59,0:00,0:00,무료,24,0,,,,,,,,경상남도 남해군청,055-860-3455,34.84285406,127.8941656,2022-09-23,5430000,경상남도 남해군
PAR-000394,시외버스터미널 주변 주차장,공영,노상,경상남도 남해군 남해읍 남해대로 2835,경상남도 남해군 남해읍 북변리 316-3,10,2,미시행,평일+토요일,0:00,23:59,0:00,23:59,0:00,0:00,무료,24,0,,,,,,,,경상남도 남해군청,055-860-3455,34.84179084,127.8984844,2022-09-23,5430000,경상남도 남해군
PAR-000395,효성아파트 앞 주차장,공영,노상,,경상남도 남해군 남해읍 아산리 969-3,36,2,미시행,평일+토요일,0:00,23:59,0:00,23:59,0:00,0:00,무료,24,0,,,,,,,,경상남도 남해군청,055-860-3455,34.83856644,127.8864812,2022-09-23,5430000,경상남도 남해군
PAR-000396,고촌공영주차장,공영,노외,경기도 김포시 고촌읍 은행영사정로 10,경기도 김포시 고촌읍 신곡리 532-87,58,1,미시행,평일+토요일,9:00,22:00,9:00,22:00,0:00,0:00,유료,30,600,10,300,,7000,80000,현금+신용카드,,김포도시관리공사,031-996-6584,37.60067559,126.7726398,2022-09-27,4090000,경기도 김포시
PAR-000397,김포② 공영주차장,공영,노외,경기도 김포시 북변중로 18(북변동),경기도 김포시 북변동 887,39,1,미시행,평일,9:00,20:00,0:00,0:00,0:00,0:00,유료,30,600,10,300,,7000,60000,현금+신용카드,주간 정기권이용료로 종일가능,김포도시관리공사,031-996-6584,37.62348998,126.7129714,2022-09-27,4090000,경기도 김포시
PAR-000398,장기① 공영주차장,공영,노외,경기도 김포시 김포한강1로 77-15(장기동),경기도 김포시 장기동 1861,78,1,미시행,평일+토요일,10:00,23:00,10:00,23:00,0:00,0:00,유료,30,600,10,300,,7000,80000,현금+신용카드,,김포도시관리공사,031-996-6584,37.6455103,126.6690541,2022-09-27,4090000,경기도 김포시
PAR-000399,장기② 공영주차장,공영,노외,경기도 김포시 김포한강1로 77-9(장기동),경기도 김포시 장기동 1847,50,1,미시행,평일+토요일,10:00,23:00,10:00,23:00,0:00,0:00,유료,30,600,10,300,,7000,80000,현금+신용카드,,김포도시관리공사,031-996-6584,37.64528039,126.6680353,2022-09-27,4090000,경기도 김포시
PAR-000400,통진공영주차장,공영,노외,경기도 김포시 통진읍 서암로 98,경기도 김포시 통진읍 서암리 756-8,206,1,미시행,평일,10:00,21:00,0:00,0:00,0:00,0:00,유료,30,600,10,300,,7000,40000,현금+신용카드,"장날휴무(3일+8일), 주간 정기권 이용료로 종일가능",김포도시관리공사,031-996-6584,37.69366196,126.6003753,2022-09-27,4090000,경기도 김포시
PAR-000401,사우1구역 공영주차장,공영,노외,경기도 김포시 돌문로 86번길 11-2(사우동),경기도 김포시 사우동 1044 (명태어장앞),57,1,미시행,평일+토요일,11:00,23:00,11:00,23:00,0:00,0:00,유료,30,600,10,300,,7000,80000,현금+신용카드,,김포도시관리공사,031-996-6584,37.62199823,126.7145721,2022-09-27,4090000,경기도 김포시
PAR-000402,사우2구역 공영주차장,공영,노외,경기도 김포시 돌문로 62번길 49(사우동),경기도 김포시 사우동 1003 (GS25앞),32,1,미시행,평일+토요일,11:00,23:00,11:00,23:00,0:00,0:00,유료,30,600,10,300,,7000,60000,현금+신용카드,주간 정기권만 가능,김포도시관리공사,031-996-6584,37.62101768,126.7159487,2022-09-27,4090000,경기도 김포시
PAR-000403,사우3구역 공영주차장,공영,노외,경기도 김포시 돌문로 86번길 12-20(사우동),경기도 김포시 사우동 1019 (황금어장앞),32,1,미시행,평일+토요일,11:00,23:00,11:00,23:00,0:00,0:00,유료,30,600,10,300,,7000,60000,현금+신용카드,주간 정기권만 가능,김포도시관리공사,031-996-6584,37.62123624,126.7154177,2022-09-27,4090000,경기도 김포시
PAR-000404,사우4구역 공영주차장,공영,노외,경기도 김포시 돌문로 50-5(사우동),경기도 김포시 사우동 947 (사우동사무소앞),24,1,미시행,평일+토요일,10:00,22:00,10:00,22:00,0:00,0:00,유료,30,600,10,300,,7000,60000,현금+신용카드,주간 정기권만 가능,김포도시관리공사,031-996-6584,37.61979952,126.7175512,2022-09-27,4090000,경기도 김포시
PAR-000405,사우5구역 공영주차장,공영,노외,경기도 김포시 돌문로 50-18(사우동),경기도 김포시 사우동 939,19,1,미시행,평일+토요일,10:00,22:00,10:00,22:00,0:00,0:00,유료,30,600,10,300,,7000,80000,현금+신용카드,,김포도시관리공사,031-996-6584,37.62003292,126.7185894,2022-09-27,4090000,경기도 김포시
PAR-000406,사우7구역 공영주차장,공영,노외,경기도 김포시 사우중로 74번길 19(사우동),경기도 김포시 사우동 879 (동양·신명아파트 앞),20,1,미시행,평일+토요일,10:00,22:00,10:00,22:00,0:00,0:00,유료,30,600,10,300,,7000,80000,현금+신용카드,,김포도시관리공사,031-996-6584,37.6214401,126.721375,2022-09-27,4090000,경기도 김포시
PAR-000407,사우8구역 공영주차장,공영,노외,경기도 김포시 사우중로 73번길 46(북변동),경기도 김포시 북변동 818,22,1,미시행,평일+토요일,10:00,22:00,10:00,22:00,0:00,0:00,유료,30,600,10,300,,7000,80000,현금+신용카드,,김포도시관리공사,031-996-6584,37.62287695,126.7209726,2022-09-27,4090000,경기도 김포시
PAR-000408,장기③공영주차장,공영,노외,,경기도 김포시 장기동 1514,82,1,미시행,평일+토요일,10:00,23:00,10:00,23:00,0:00,0:00,유료,30,600,10,300,,7000,80000,신용카드,,김포도시관리공사,031-996-6584,37.64376317,126.6725146,2022-09-27,4090000,경기도 김포시
PAR-000409,고촌23 공영주차장,공영,노외,,경기도 김포시 고촌읍 신곡리 1066,16,1,미시행,평일+토요일,9:00,22:00,9:00,22:00,0:00,0:00,유료,30,600,10,300,,7000,80000,현금+신용카드,,김포도시관리공사,031-996-6584,37.60319835,126.7690194,2022-09-27,4090000,경기도 김포시
PAR-000410,장기동행복나눔공영주차장,공영,노외,,경기도 김포시 장기동 1758,20,1,미시행,평일+토요일+공휴일,0:00,23:59,0:00,23:59,0:00,23:59,무료,0,0,,,,,,,,경기도 김포시청,031-980-2330,37.63898172,126.6642474,2022-09-27,4090000,경기도 김포시
PAR-000411,사우동행복나눔공영주차장,공영,노외,,경기도 김포시 사우동 188-17,49,1,미시행,평일+토요일+공휴일,0:00,23:59,0:00,23:59,0:00,23:59,무료,0,0,,,,,,,,경기도 김포시청,031-980-2330,37.62255044,126.7125908,2022-09-27,4090000,경기도 김포시
PAR-000412,구래동행복나눔공영주차장,공영,노외,,경기도 김포시 구래동 6918-24,49,1,미시행,평일+토요일+공휴일,9:00,18:00,0:00,23:59,0:00,23:59,무료,0,0,,,,,,,,경기도 김포시청,031-980-2330,37.6474574,126.6231336,2022-09-27,4090000,경기도 김포시
PAR-000413,마산동행복나눔공영주차장,공영,노외,,경기도 김포시 마산동 633-11,56,1,미시행,평일+공휴일,0:00,23:59,0:00,0:00,0:00,23:59,무료,0,0,,,,,,,,경기도 김포시청,031-980-2330,37.64209809,126.6403262,2022-09-27,4090000,경기도 김포시
PAR-000414,장기5,공영,노외,경기도 김포시 김포한강2로 23번길  76,경기도 김포시 장기동 2025-2,104,1,미시행,평일+토요일,9:00,23:00,9:00,23:00,0:00,0:00,유료,30,600,10,300,,7000,80000,신용카드,,김포도시관리공사,031-996-6584,37.63984166,126.680359,2022-09-27,4090000,경기도 김포시
PAR-000415,장기6,공영,노외,,경기도 김포시 장기동 2080-1,60,1,미시행,평일+토요일,9:00,23:00,9:00,23:59,0:00,0:00,유료,30,600,10,300,,7000,80000,현금+신용카드,,김포도시관리공사,031-996-6584,37.6371215,126.6767441,2022-09-27,4090000,경기도 김포시
PAR-000416,장기상가 노상주차장,공영,노상,,경기도 김포시 장기동 1864,18,1,미시행,평일+토요일+공휴일,0:00,23:59,0:00,23:59,0:00,23:59,유료,0,0,,,,,,,,경기도 김포시청,031-980-2330,37.64518933,126.6693993,2022-09-27,4090000,경기도 김포시
PAR-000417,사우1구역 노상주차장,공영,노상,경기도 김포시 돌문로 86번길,경기도 김포시 사우동 1044,77,1,미시행,평일+토요일,10:00,19:00,10:00,19:00,0:00,0:00,유료,30,600,10,300,,7000,60000,현금+신용카드,,김포도시관리공사,031-996-6584,37.62199859,126.7145466,2022-09-27,4090000,경기도 김포시
PAR-000418,사우2구역 노상주차장,공영,노상,경기도 김포시 돌문로 62번길,경기도 김포시 사우동 1079-1(칠성아파트앞상가),104,1,미시행,평일+토요일,10:00,19:00,10:00,19:00,0:00,0:00,유료,30,600,10,300,,7000,60000,현금+신용카드,,김포도시관리공사,031-996-6584,37.6202343,126.7161459,2022-09-27,4090000,경기도 김포시
PAR-000419,사우3구역 노상주차장,공영,노상,경기도 김포시 돌문로 48번길,경기도 김포시 사우동 935-1,61,1,미시행,평일+토요일,10:00,19:00,10:00,19:00,0:00,0:00,유료,30,600,10,300,,7000,60000,현금+신용카드,,김포도시관리공사,031-996-6584,37.61939146,126.7182293,2022-09-27,4090000,경기도 김포시
PAR-000420,장기동 산타 노상,공영,노상,,경기도 김포시 장기동 1796,42,1,미시행,평일+토요일,10:00,19:00,10:00,19:00,0:00,0:00,유료,30,600,10,300,,7000,60000,현금+신용카드,,김포도시관리공사,031-996-6584,37.64411536,126.667719,2022-09-27,4090000,경기도 김포시
PAR-000421,장기동 먹자 노상,공영,노상,,경기도 김포시 장기동 1783,110,1,미시행,평일+토요일,10:00,19:00,10:00,19:00,0:00,0:00,유료,30,600,10,300,,7000,60000,현금+신용카드,,김포도시관리공사,031-996-6584,37.643229,126.673278,2022-09-27,4090000,경기도 김포시
PAR-000422,장기지구 노상,공영,노상,,경기도 김포시 장기동 1864,47,1,미시행,평일+토요일,10:00,19:00,10:00,19:00,0:00,0:00,유료,30,600,10,300,,7000,60000,현금+신용카드,,김포도시관리공사,031-996-6584,37.64518933,126.6693993,2022-09-27,4090000,경기도 김포시
PAR-000423,김포고촌물류단지 남측 노상,공영,노상,,경기도 김포시 고촌읍 전호리 755,319,1,미시행,평일+토요일,10:00,19:00,10:00,19:00,0:00,0:00,유료,30,600,10,300,,7000,60000,현금+신용카드,,김포도시관리공사,031-996-6584,37.59164146,126.7934664,2022-09-27,4090000,경기도 김포시
PAR-000424,김포물류단지북측노상주차장,공영,노상,,경기도 김포시 고촌읍 전호리 647,270,1,미시행,평일+토요일,10:00,19:00,10:00,19:00,0:00,0:00,유료,30,600,10,300,,7000,60000,현금+신용카드,,김포도시관리공사,031-996-6584,37.60067959,126.7854114,2022-09-27,4090000,경기도 김포시
PAR-000425,양곡 노상,공영,노상,,경기도 김포시 양촌읍 양곡리 1519,15,1,미시행,평일+토요일+공휴일,0:00,23:59,0:00,23:59,0:00,23:59,무료,0,0,,,,,,,,경기도 김포시청,031-980-2330,37.65445073,126.6278322,2022-09-27,4090000,경기도 김포시
PAR-000426,사우6구역 노상,공영,노상,,경기도 김포시 사우동 380-9,15,1,미시행,평일+토요일+공휴일,0:00,23:59,0:00,23:59,0:00,23:59,무료,0,0,,,,,,,,경기도 김포시청,031-980-2330,37.616505,126.7256365,2022-09-27,4090000,경기도 김포시
PAR-000427,하성공영주차장,공영,노외,,경기도 김포시 하성면 석탄리 530-15(하성입구),95,2,미시행,평일+토요일+공휴일,0:00,23:59,0:00,23:59,0:00,23:59,무료,0,0,,,,,,,,경기도 김포시청,031-980-2330,37.72030012,126.634361,2022-09-27,4090000,경기도 김포시
PAR-000428,고촌노을 공영주차장,공영,노외,,경기도 김포시 고촌읍 신곡리 1107,165,1,미시행,평일+토요일+공휴일,0:00,23:59,0:00,23:59,0:00,23:59,무료,0,0,,,,,,,,경기도 김포시청,031-980-2330,37.60387998,126.7723072,2022-09-27,4090000,경기도 김포시
PAR-000429,신곡 공영주차장,공영,노외,,경기도 김포시 고촌읍 신곡리 1287,9,1,미시행,평일+토요일+공휴일,0:00,23:59,0:00,23:59,0:00,23:59,유료,0,0,,,,,60000,,정기권 전용 주차장(주간 정기권 이용료로 종일가능),김포도시관리공사,031-996-6584,37.60385951,126.7670518,2022-09-27,4090000,경기도 김포시
PAR-000430,대곶 공영주차장,공영,노외,,경기도 김포시 대곶면 율생리 520,86,2,미시행,평일+토요일+공휴일,0:00,23:59,0:00,23:59,0:00,23:59,무료,0,0,,,,,,,,김포도시관리공사,031-996-6584,37.6492103,126.5830375,2022-09-27,4090000,경기도 김포시
PAR-000431,고촌22 공영주차장,공영,노외,,경기도 김포시 고촌읍 신곡리 1109,34,1,미시행,평일+토요일+공휴일,0:00,23:59,0:00,23:59,0:00,23:59,무료,0,0,,,,,,,,경기도 김포시청,031-980-2330,37.60379843,126.7731978,2022-09-27,4090000,경기도 김포시
PAR-000432,사우② 공영주차장,공영,노외,경기도 김포시 돌문로 16(사우동),경기도 김포시 사우동 920,94,1,미시행,평일+토요일,9:00,22:00,9:00,22:00,0:00,0:00,유료,30,600,10,300,,7000,80000,현금+신용카드,,김포도시관리공사,031-996-6584,37.61856089,126.7212102,2022-09-27,4090000,경기도 김포시
PAR-000433,사우자주식 공영주차장,공영,노외,경기도 김포시 돌문로 32(사우동),경기도 김포시 사우동 1079-1,165,1,미시행,평일+토요일,9:00,23:59,9:00,23:59,0:00,0:00,유료,30,600,10,300,,7000,80000,현금+신용카드,,김포도시관리공사,031-996-6584,37.61904757,126.7197493,2022-09-27,4090000,경기도 김포시
PAR-000434,북변자주식 공영주차장,공영,노외,경기도 김포시 봉화로 182번길 18(북변동),"경기도 김포시 북변동 758, 759 (서초등학교 앞)",70,1,미시행,평일+토요일,9:00,23:59,9:00,23:59,0:00,0:00,유료,30,600,10,300,,7000,80000,신용카드,,김포도시관리공사,031-996-6584,37.62834258,126.7027057,2022-09-27,4090000,경기도 김포시
PAR-000435,북변 공영주차장,공영,노외,경기도 김포시 김포대로 955(북변동),경기도 김포시 북변동 278-1,157,1,미시행,평일+토요일,9:00,22:00,9:00,22:00,0:00,0:00,유료,30,600,10,300,,7000,50000,현금+신용카드,장날휴무(2일+7일),김포도시관리공사,031-996-6584,37.62744531,126.7117539,2022-09-27,4090000,경기도 김포시
PAR-000436,주원제2호,공영,노외,인천광역시 남동구 벽돌말로 19,인천광역시 남동구 간석동 577-2,17,3,미시행,평일+토요일+공휴일,0:00,23:59,0:00,23:59,0:00,23:59,유료,30,400,15,200,5,4000,40000,카드,,인천광역시 남동구도시관리공단,032-460-0530,37.46608374,126.7006355,2022-09-30,3530000,인천광역시 남동구
PAR-000437,옥산2구마을(김영희아구찜앞) 주차장,공영,노외,경상남도 산청군 산청읍 꽃봉산로79번길 20,경상남도 산청군 산청읍 옥산리 163-1,28,1,미시행,평일+토요일+공휴일,0:00,23:59,0:00,23:59,0:00,23:59,무료,0,0,,,,,,,,경상남도 산청군청,055-970-6833,35.41460164,127.874757,2022-09-28,5450000,경상남도 산청군
PAR-000438,산청경찰서 앞 주차장,공영,노외,경상남도 산청군 산청읍 중앙로 1,경상남도 산청군 산청읍 산청리 332-1,18,1,미시행,평일+토요일+공휴일,0:00,23:59,0:00,23:59,0:00,23:59,무료,0,0,,,,,,,,경상남도 산청군청,055-970-6833,35.41644279,127.874442,2022-09-28,5450000,경상남도 산청군
PAR-000439,산청군 보건의료원 주변 주차장,공영,노외,경상남도 산청군 산청읍 중앙로 97,경상남도 산청군 산청읍 지리 797,53,1,미시행,평일+토요일+공휴일,0:00,23:59,0:00,23:59,0:00,23:59,무료,0,0,,,,,,,,경상남도 산청군청,055-970-6833,35.4160184,127.8842361,2022-09-28,5450000,경상남도 산청군
PAR-000440,대한노인회 산청군지회 옆 주차장,공영,노외,경상남도 산청군 산청읍 중앙로2번길 6,경상남도 산청군 산청읍 옥산리 450-8,21,1,미시행,평일+토요일+공휴일,0:00,23:59,0:00,23:59,0:00,23:59,무료,0,0,,,,,,,,경상남도 산청군청,055-970-6833,35.41591851,127.874661,2022-09-28,5450000,경상남도 산청군
PAR-000441,산청읍행정복지센터 주차장,공영,노외,경상남도 산청군 산청읍 산엔청로 38,경상남도 산청군 산청읍 지리 322-6,17,1,미시행,평일+토요일+공휴일,0:00,23:59,0:00,23:59,0:00,23:59,무료,0,0,,,,,,,,경상남도 산청군청,055-970-6833,35.4136709,127.877225,2022-09-28,5450000,경상남도 산청군
PAR-000442,차황면사무소 주차장,공영,노외,경상남도 산청군 차황면 친환경로 3581,경상남도 산청군 차황면 장위리 18-3,28,1,미시행,평일+토요일+공휴일,0:00,23:59,0:00,23:59,0:00,23:59,무료,0,0,,,,,,,,경상남도 산청군청,055-970-6833,35.46368845,127.927879,2022-09-28,5450000,경상남도 산청군
PAR-000443,오부면사무소 주차장,공영,노외,경상남도 산청군 오부면 산수로 541,경상남도 산청군 오부면 양촌리 407-1,14,1,미시행,평일+토요일+공휴일,0:00,23:59,0:00,23:59,0:00,23:59,무료,0,0,,,,,,,,경상남도 산청군청,055-970-6833,35.45872341,127.8619541,2022-09-28,5450000,경상남도 산청군
PAR-000444,생초면사무소 주차장,공영,노외,경상남도 산청군 생초면 생초로 58,경상남도 산청군 생초면 어서리 293-2,25,1,미시행,평일+토요일+공휴일,0:00,23:59,0:00,23:59,0:00,23:59,무료,0,0,,,,,,,,경상남도 산청군청,055-970-6833,35.4931251,127.8328913,2022-09-28,5450000,경상남도 산청군
PAR-000445,금서면사무소 주차장,공영,노외,경상남도 산청군 금서면 친환경로 2536,경상남도 산청군 금서면 매촌리 717-4,24,1,미시행,평일+토요일+공휴일,0:00,23:59,0:00,23:59,0:00,23:59,무료,0,0,,,,,,,,경상남도 산청군청,055-970-6833,35.41746775,127.8631146,2022-09-28,5450000,경상남도 산청군
PAR-000446,삼장면사무소 주차장,공영,노외,경상남도 산청군 삼장면 덕산대포로 257,경상남도 산청군 삼장면 대포리 104-3,28,1,미시행,평일+토요일+공휴일,0:00,23:59,0:00,23:59,0:00,23:59,무료,0,0,,,,,,,,경상남도 산청군청,055-970-6833,35.29823365,127.8317583,2022-09-28,5450000,경상남도 산청군
PAR-000447,시천면사무소 주차장,공영,노외,경상남도 산청군 시천면 남명2길 21,경상남도 산청군 시천면 사리 762-7,6,1,미시행,평일+토요일+공휴일,0:00,23:59,0:00,23:59,0:00,23:59,무료,0,0,,,,,,,,경상남도 산청군청,055-970-6833,35.27840996,127.8405654,2022-09-28,5450000,경상남도 산청군
PAR-000448,단성면사무소 주차장,공영,노외,경상남도 산청군 단성면 목화로977번길 6-3,경상남도 산청군 단성면 성내리 186-1,43,1,미시행,평일+토요일+공휴일,0:00,23:59,0:00,23:59,0:00,23:59,무료,0,0,,,,,,,,경상남도 산청군청,055-970-6833,35.2990426,127.9573214,2022-09-28,5450000,경상남도 산청군
PAR-000449,신안면사무소 주차장,공영,노외,경상남도 산청군 신안면 지리산대로 3486,경상남도 산청군 신안면 하정리 754,30,1,미시행,평일+토요일+공휴일,0:00,23:59,0:00,23:59,0:00,23:59,무료,0,0,,,,,,,,경상남도 산청군청,055-970-6833,35.3039373,127.973024,2022-09-28,5450000,경상남도 산청군
PAR-000450,생비량면사무소 주차장,공영,노외,경상남도 산청군 생비량면 비량로 29,경상남도 산청군 생비량면 도리 646-8,19,1,미시행,평일+토요일+공휴일,0:00,23:59,0:00,23:59,0:00,23:59,무료,0,0,,,,,,,,경상남도 산청군청,055-970-6833,35.34542458,128.0442743,2022-09-28,5450000,경상남도 산청군
PAR-000451,신등면사무소 주차장,공영,노외,경상남도 산청군 신등면 신차로 576,경상남도 산청군 신등면 단계리 845,16,1,미시행,평일+토요일+공휴일,0:00,23:59,0:00,23:59,0:00,23:59,무료,0,0,,,,,,,,경상남도 산청군청,055-970-6833,35.3828318,128.0066007,2022-09-28,5450000,경상남도 산청군
PAR-000452,사우4구역 노상주차장,공영,노상,경기도 김포시 돌문로 61,경기도 김포시 사우동 236,51,1,미시행,평일+토요일+공휴일,0:00,23:59,0:00,23:59,0:00,23:59,무료,0,0,,,,,,,,경기도 김포시청,031-980-2330,37.6198189,126.716506,2022-09-27,4090000,경기도 김포시
PAR-000453,사우5구역 노상주차장,공영,노상,경기도 김포시 봉화로 3-22,경기도 김포시 사우동 271-12,92,1,미시행,평일+토요일+공휴일,0:00,23:59,0:00,23:59,0:00,23:59,무료,0,0,,,,,,,,경기도 김포시청,031-980-2330,37.61701396,126.7162677,2022-09-27,4090000,경기도 김포시
PAR-000454,북변택지 노상주차장,공영,노상,,경기도 김포시 북변동 376-38 (북변택지지구),45,1,미시행,평일+토요일+공휴일,0:00,23:59,0:00,23:59,0:00,23:59,무료,0,0,,,,,,,,경기도 김포시청,031-980-2330,37.62687994,126.7104197,2022-09-27,4090000,경기도 김포시
PAR-000455,고촌 노상주차장,공영,노상,,경기도 김포시 고촌읍 신곡리 578-2,16,1,미시행,평일+토요일,10:00,22:00,10:00,22:00,0:00,0:00,유료,30,600,10,300,,,,,,김포도시관리공사,031-996-6584,37.59903325,126.7716423,2022-09-27,4090000,경기도 김포시
PAR-000456,군하 노상주차장,공영,노상,경기도 김포시 월곶면 군하로276번길 20,경기도 김포시 월곶면 군하리 83-2,72,2,미시행,평일+토요일+공휴일,0:00,23:59,0:00,23:59,0:00,23:59,무료,0,0,,,,,,,,경기도 김포시청,031-980-2330,37.71702337,126.5521923,2022-09-27,4090000,경기도 김포시
PAR-000457,약산제1호,공영,노외,,인천광역시 남동구 간석동 86-2,25,3,미시행,평일+토요일+공휴일,0:00,23:59,0:00,23:59,0:00,23:59,유료,30,400,15,200,5,4000,40000,카드,,인천광역시 남동구도시관리공단,032-460-0530,37.4679749,126.7121016,2022-09-30,3530000,인천광역시 남동구
PAR-000458,신선동,공영,노외,부산광역시 영도구 하나길 472,부산광역시 영도구 신선동2가 136-1,25,4,요일제,평일+토요일+공휴일,0:00,23:59,0:00,23:59,0:00,23:59,유료,10,100,10,100,1200,2400,52000,현금,없음,부산광역시 영도구청,051-419-4552,35.08705236,129.0467623,2022-10-05,3280000,부산광역시 영도구
PAR-000459,봉래시장,공영,노외,부산광역시 영도구 대교로 9,부산광역시 영도구 봉래동3가 22-2,23,2,요일제,평일+토요일+공휴일,0:00,23:59,0:00,23:59,0:00,23:59,유료,10,300,10,300,1200,8000,160000,현금,없음,부산광역시 영도구청,051-419-4552,35.0929268,129.0438271,2022-10-05,3280000,부산광역시 영도구
PAR-000460,유정아파트,공영,노외,부산광역시 영도구 장미계단길 123,부산광역시 영도구 봉래동5가 122-37,20,4,요일제,평일+토요일+공휴일,0:00,23:59,0:00,23:59,0:00,23:59,유료,10,100,10,100,1200,2400,52000,현금,없음,부산광역시 영도구청,051-419-4552,35.09266318,129.0552642,2022-10-05,3280000,부산광역시 영도구
PAR-000461,청학시장,공영,노외,부산광역시 영도구 청학서로 88,부산광역시 영도구 청학동 307-19,26,4,요일제,평일+토요일+공휴일,0:00,23:59,0:00,23:59,0:00,23:59,유료,10,100,10,100,1200,2400,52000,현금,없음,부산광역시 영도구청,051-419-4552,35.0968306,129.0592136,2022-10-05,3280000,부산광역시 영도구
PAR-000462,청학하나,공영,노외,부산광역시 영도구 청학서로 88,부산광역시 영도구 청학동 391-98,57,4,요일제,평일+토요일+공휴일,0:00,23:59,0:00,23:59,0:00,23:59,유료,10,300,10,300,1200,8000,160000,현금,없음,부산광역시 영도구청,051-419-4552,35.09680071,129.0592793,2022-10-05,3280000,부산광역시 영도구
PAR-000463,청학초등학교,공영,노외,부산광역시 영도구 청학로 49,부산광역시 영도구 청학동 412-3,105,4,요일제,평일+토요일+공휴일,0:00,23:59,0:00,23:59,0:00,23:59,유료,10,100,10,100,1200,2400,52000,현금,없음,부산광역시 영도구청,051-419-4552,35.09320301,129.0595046,2022-10-05,3280000,부산광역시 영도구
PAR-000464,청학1동,공영,노외,부산광역시 영도구 봉래길 191,부산광역시 영도구 청학동 418-5,40,4,요일제,평일+토요일+공휴일,0:00,23:59,0:00,23:59,0:00,23:59,유료,10,100,10,100,1200,2400,52000,현금,없음,부산광역시 영도구청,051-419-4552,35.09140058,129.056113,2022-10-05,3280000,부산광역시 영도구
PAR-000465,해돋이마을,공영,노외,부산광역시 영도구 와치로 2-14,부산광역시 영도구 청학동 468-57,22,4,요일제,평일+토요일+공휴일,0:00,23:59,0:00,23:59,0:00,23:59,유료,10,100,10,100,1200,2400,52000,현금,없음,부산광역시 영도구청,051-419-4552,35.0904128,129.0568423,2022-10-05,3280000,부산광역시 영도구
PAR-000466,청학2동,공영,노외,부산광역시 영도구 청학동로 18-1,부산광역시 영도구 청학동 99-229,53,4,요일제,평일+토요일+공휴일,0:00,23:59,0:00,23:59,0:00,23:59,유료,10,100,10,100,1200,2400,52000,현금,없음,부산광역시 영도구청,051-419-4552,35.08920619,129.0622152,2022-10-05,3280000,부산광역시 영도구
PAR-000467,청학동로,공영,노외,부산광역시 영도구 청학동로 58,부산광역시 영도구 청학동 120-8,22,4,요일제,평일+토요일+공휴일,0:00,23:59,0:00,23:59,0:00,23:59,유료,10,100,10,100,1200,2400,52000,현금,없음,부산광역시 영도구청,051-419-4552,35.09243615,129.0634763,2022-10-05,3280000,부산광역시 영도구
PAR-000468,청학스카이웨이,공영,노외,부산광역시 영도구 청학남로 15,부산광역시 영도구 동삼동 328-22,45,4,요일제,평일+토요일+공휴일,0:00,23:59,0:00,23:59,0:00,23:59,유료,10,100,10,100,1200,2400,52000,현금,없음,부산광역시 영도구청,051-419-4552,35.0902062,129.0593647,2022-10-05,3280000,부산광역시 영도구
PAR-000469,영도중학교옆,공영,노외,부산광역시 영도구 동삼남로 32,부산광역시 영도구 동삼동 328-22,20,4,요일제,평일+토요일+공휴일,0:00,23:59,0:00,23:59,0:00,23:59,유료,10,100,10,100,1200,2400,52000,현금,없음,부산광역시 영도구청,051-419-4552,35.077534,129.0692786,2022-10-05,3280000,부산광역시 영도구
PAR-000470,영도해녀문화전시관,공영,노외,부산광역시 영도구 중리남로 2-36,부산광역시 영도구 동삼동 639-7,28,4,요일제,평일+토요일+공휴일,0:00,23:59,0:00,23:59,0:00,23:59,유료,10,100,10,100,1200,2400,52000,현금,없음,부산광역시 영도구청,051-419-4552,35.06700302,129.0660428,2022-10-05,3280000,부산광역시 영도구
PAR-000471,신선스카이웨이,공영,노외,부산광역시 영도구 산제당길 154,부산광역시 영도구 신선동2가 141-84,49,4,요일제,평일+토요일+공휴일,0:00,23:59,0:00,23:59,0:00,23:59,유료,10,100,10,100,1200,2400,52000,현금+카드,없음,부산광역시 영도구청,051-419-4552,35.086553,129.0483665,2022-10-05,3280000,부산광역시 영도구
PAR-000472,제생의원-동양레포츠 주차장,공영,노상,경상남도 산청군 산청읍 웅석봉로 10,경상남도 산청군 산청읍 산청리 166-9,10,1,미시행,평일+토요일+공휴일,0:00,23:59,0:00,23:59,0:00,23:59,무료,0,0,,,,,,,,경상남도 산청군청,055-970-6833,35.41633694,127.876495,2022-09-28,5450000,경상남도 산청군
PAR-000473,영남탕-보광전기 주차장,공영,노상,경상남도 산청군 산청읍 친환경로 2683,경상남도 산청군 산청읍 산청리 196-1,10,1,미시행,평일+토요일+공휴일,0:00,23:59,0:00,23:59,0:00,23:59,무료,0,0,,,,,,,,경상남도 산청군청,055-970-6833,35.41729932,127.878024,2022-09-28,5450000,경상남도 산청군
PAR-000474,킹스할인마트 앞 주차장,공영,노상,경상남도 산청군 산청읍 웅석봉로 48,경상남도 산청군 산청읍 옥산리 161-2,10,1,미시행,평일+토요일+공휴일,0:00,23:59,0:00,23:59,0:00,23:59,무료,0,0,,,,,,,,경상남도 산청군청,055-970-6833,35.41332814,127.8742661,2022-09-28,5450000,경상남도 산청군
PAR-000475,현대오토바이-해장국 설렁탕 주차장,공영,노상,경상남도 산청군 산청읍 웅석봉로 48,경상남도 산청군 산청읍 옥산리 161-2,10,1,미시행,평일+토요일+공휴일,0:00,23:59,0:00,23:59,0:00,23:59,무료,0,0,,,,,,,,경상남도 산청군청,055-970-6833,35.41332814,127.8742661,2022-09-28,5450000,경상남도 산청군
PAR-000476,한마음공원 주차장,공영,노외,경상남도 산청군 산청읍 꽃봉산로79번길,경상남도 산청군 산청읍 옥산리 270-3,45,1,미시행,평일+토요일+공휴일,0:00,23:59,0:00,23:59,0:00,23:59,무료,0,0,,,,,,,,경상남도 산청군청,055-970-6833,35.41461409,127.8742428,2022-09-28,5450000,경상남도 산청군
PAR-000477,꽃봉산주차장(남산마을) 주차장,공영,노외,경상남도 산청군 산청읍 꽃봉산로86번길,경상남도 산청군 산청읍 옥산리 723-1,47,1,미시행,평일+토요일+공휴일,0:00,23:59,0:00,23:59,0:00,23:59,무료,0,0,,,,,,,,경상남도 산청군청,055-970-6833,35.41055098,127.873124,2022-09-28,5450000,경상남도 산청군
PAR-000478,토토볼링장앞,공영,노상,부산광역시 영도구 대평남로 7,부산광역시 영도구 대평동1가 162-1,24,2,요일제,평일+토요일+공휴일,8:00,20:00,8:00,20:00,8:00,20:00,유료,10,300,10,300,600,8000,90000,현금,없음,부산광역시 영도구청,051-419-4552,35.08988328,129.0358092,2022-10-05,3280000,부산광역시 영도구
PAR-000479,선용품유통센터앞,공영,노상,부산광역시 영도구 남항로 26,부산광역시 영도구 남항동2가 273-1,26,2,요일제,평일+토요일+공휴일,8:00,20:00,8:00,20:00,8:00,20:00,유료,10,300,10,300,600,8000,90000,현금,없음,부산광역시 영도구청,051-419-4552,35.08909927,129.0392675,2022-10-05,3280000,부산광역시 영도구
PAR-000480,남항방파제,공영,노상,부산광역시 영도구 남항서로 52,부산광역시 영도구 남항동3가 141-37,123,3,요일제,평일+토요일+공휴일,8:00,20:00,8:00,20:00,8:00,20:00,유료,10,200,10,200,600,4700,50000,현금,없음,부산광역시 영도구청,051-419-4552,35.08558483,129.034834,2022-10-05,3280000,부산광역시 영도구
PAR-000481,절영해안산책로앞,공영,노상,부산광역시 영도구 해안산책길 52,부산광역시 영도구 영선동4가 186-101,122,3,요일제,평일+토요일+공휴일,8:00,20:00,8:00,20:00,8:00,20:00,유료,10,200,10,200,600,4700,50000,현금,없음,부산광역시 영도구청,051-419-4552,35.0811807,129.0412093,2022-10-05,3280000,부산광역시 영도구
